_id,museo_id,museo_tematica_n1,museo_nombre,museo_fecha_fundacion,museo_adscripcion,museo_tipo_de_propiedad,museo_calle_numero,museo_colonia,museo_cp,museo_telefono1,pagina_web,pagina_web2,email,twitter,gmaps_latitud,gmaps_longitud,estado_id,municipio_id,localidad_id,nom_ent,nom_mun,nom_loc,link_sic,fecha_mod
65a75f99df46a6e2e49c88c5,929,Historia,Museo Ferrocarrilero,2003-03-04,Instituto Cultural de Aguascalientes (ICA)/Dirección de Promoción y Difusión,público,"Plaza de las Tres Centurias, Av. 28 de Agosto s/n",Barrio de La Estación,20059,449 994 27 61 y 62,,,mferrocarrilero@gmail.com,,21.88477,-102.28093,1,1,1,Aguascalientes,Aguascalientes,Aguascalientes,http://sic.gob.mx/ficha.php?table=museo&table_id=929,2022-11-22T05:52:09-06:00
65a75f99df46a6e2e49c88c6,1808,Arte,Museo Escárcega,2015-05-21,"Museo Escárcega, A.C.",privado,Ezequiel A. Chávez 311,Barrio de la Purísima,20000,449 918 67 30,https://museoeer.wixsite.com/muse/acerca-de-nosotros,,museoescarcega@hotmail.com,,21.88473,-102.28575,1,1,1,Aguascalientes,Aguascalientes,Aguascalientes,http://sic.gob.mx/ficha.php?table=museo&table_id=1808,2022-09-26T07:34:38-05:00
65a75f99df46a6e2e49c88c7,361,Ciencia y tecnología,Museo de la Fauna ,1989-04-24,Secretaría del Medio Ambiente Estatal/CEAR Rodolfo Landeros Gallegos,público,Blvd. José María Chávez s/n,Col. Ciudad Industrial,20290,449 688 10 87,http://www.aguascalientes.gob.mx/ssmaa/Areasverdes/cearRLG.html,,rquel.baccio@aguascalientes.gob.mx,,21.85177,-102.29124,1,1,1,Aguascalientes,Aguascalientes,Aguascalientes,http://sic.gob.mx/ficha.php?table=museo&table_id=361,2022-12-02T04:28:25-06:00
65a75f99df46a6e2e49c88c8,602,Ciencia y tecnología,Descubre. Museo Interactivo de Ciencia y Tecnología,1996-11-20,Instituto para el Desarrollo de la Sociedad y el Conocimiento del Estado de Aguascalientes (IDSCEA),público,Av. San Miguel s/n,Fracc. Jardines del Parque,20270,"449 978 03 38 exts. 7129, 7115",http://www.aguascalientes.gob.mx/descubre/,,idscea.informa@gmail.com,descubreAGS,21.85596,-102.28929,1,1,1,Aguascalientes,Aguascalientes,Aguascalientes,http://sic.gob.mx/ficha.php?table=museo&table_id=602,2023-06-09T06:38:38-06:00
65a75f99df46a6e2e49c88c9,1069,Arte,Museo del Juguete Tradicional Mexicano,1998-11-06,,público,Nieto 224,Centro,20000,449 209 88 03,,,museodeljuguetetradicional@yahoo.com,,21.87922,-102.29859,1,1,1,Aguascalientes,Aguascalientes,Aguascalientes,http://sic.gob.mx/ficha.php?table=museo&table_id=1069,2021-09-28T12:24:12-05:00
65a75f99df46a6e2e49c88ca,217,Arte,Museo de Arte Contemporáneo No. 8,1991-04-14,Instituto Cultural de Aguascalientes (ICA),público,Morelos s/n esq. Primo Verdad,Centro,20000,449 918 69 01,,,mac8ica@gmail.com,,21.88283,-102.29489,1,1,1,Aguascalientes,Aguascalientes,Aguascalientes,http://sic.gob.mx/ficha.php?table=museo&table_id=217,2022-09-26T06:58:26-05:00
65a75f99df46a6e2e49c88cb,219,Historia,Museo Regional de Historia de Aguascalientes,1988-10-03,Secretaría de Cultura/INAH,público,Venustiano Carranza 118,Centro,20000,449 916 5228,,,aguascalientes.mrh@inah.gob.mx,,21.8802,-102.29895,1,1,1,Aguascalientes,Aguascalientes,Aguascalientes,http://sic.gob.mx/ficha.php?table=museo&table_id=219,2023-12-14T04:05:02-06:00
65a75f99df46a6e2e49c88cc,1790,Arte,Museo Espacio,2016-01-29,Instituto Cultural de Aguascalientes (ICA),público,"Manuel Gómez Morín s/n, Ferrocarril Sur",Barrio de la Estación,20259,449 688 41 01,http://www.museoespacio.com.mx/,,museoespacioags@gmail.com,MuseoEspacio,21.89126,-102.28127,1,1,1,Aguascalientes,Aguascalientes,Aguascalientes,http://sic.gob.mx/ficha.php?table=museo&table_id=1790,2023-10-06T04:50:05-06:00
65a75f99df46a6e2e49c88cd,2020,TND,Museo de Sitio del Teatro Morelos,NA,Instituto Cultural de Aguascalientes (ICA),TPND,"Nieto 113, Plaza de la Patria de Aguascalientes",Zona Centro,20000,(449) 915 19 41,,,produccionagsica@gmail.com,,21.88021,-102.29702,1,1,1,Aguascalientes,Aguascalientes,Aguascalientes,http://sic.gob.mx/ficha.php?table=museo&table_id=2020,2020-02-07T08:36:06-06:00
65a75f99df46a6e2e49c88ce,223,Arte,Museo de Aguascalientes,1975-10-22,Instituto Cultural de Aguascalientes (ICA),público,Zaragoza 505,Centro,20000,449  916 71 42,,,museoaguascalientes@gmail.com,,21.88581,-102.29112,1,1,1,Aguascalientes,Aguascalientes,Aguascalientes,http://sic.gob.mx/ficha.php?table=museo&table_id=223,2023-10-17T07:04:49-06:00
65a75f99df46a6e2e49c88cf,1046,Arte,Museo José Guadalupe Posada,1972-09-16,Instituto Cultural de Aguascalientes ,público,Jardín del Encino s/n lado Nte.,Barrio del Encino,20240,449  915 45 56,,,museoposada@gmail.com,,21.87526,-102.29284,1,1,1,Aguascalientes,Aguascalientes,Aguascalientes,http://sic.gob.mx/ficha.php?table=museo&table_id=1046,2022-09-26T07:52:19-05:00
65a75f99df46a6e2e49c88d0,1169,Arte,Museo Nacional de la Muerte,2007-06-19,Universidad Autónoma de Aguascalientes,público,Rivero y Gutiérrez esq. Morelos,Centro,20000,449 910 74 00 ext. 7208,http://museonacionaldelamuerte.uaa.mx,,japadill@correo.uua.mx,uaa_mx,21.88397,-102.29551,1,1,1,Aguascalientes,Aguascalientes,Aguascalientes,http://sic.gob.mx/ficha.php?table=museo&table_id=1169,2022-09-12T06:07:13-05:00
65a75f99df46a6e2e49c88d1,1453,Historia,Museo de Sitio los Arquitos,1994-11-01,Instituto Cultural de Aguascalientes/Centro Cultural Los Arquitos,público,Alameda y Héroe de Nacozari,Barrio La Purísima,20000,449 916 92 01,https://www.aguascalientes.gob.mx/temas/cultura/,,c.culturallosarquitos@gmail.com,,21.88298,-102.28221,1,1,1,Aguascalientes,Aguascalientes,Aguascalientes,http://sic.gob.mx/ficha.php?table=museo&table_id=1453,2022-11-22T07:05:56-06:00
65a75f99df46a6e2e49c88d2,2157,TND,Museo Nacional de los Pueblos Mágicos,2019-09-12,Ayuntamiento de Calvillo/Secretaría de Turismo,,Av. Benito Juárez 312,Centro,20800,495 686 00 06,,,municipiodecalvillo@gmail.com,,21.84691,-102.71875,1,3,1,Aguascalientes,Calvillo,Calvillo,http://sic.gob.mx/ficha.php?table=museo&table_id=2157,2023-03-24T03:02:07-06:00
65a75f99df46a6e2e49c88d3,1047,Especializado,Museo Comunitario del Deporte e Historia,1994-11-20," Asociación Civil de Pabellonences, A.C.",público,Av. 16 de Septiembre s/n esq. Irrigación,Centro,20660,"465 117 30 12,",,,museocomunitariodeldeporteac@gmail.com,,22.14663,-102.27521,1,6,1,Aguascalientes,Pabellón de Arteaga,Pabellón de Arteaga,http://sic.gob.mx/ficha.php?table=museo&table_id=1047,2021-06-07T03:57:44-05:00
65a75f99df46a6e2e49c88d4,1048,Historia,Museo de la Insurgencia,1964-10-17,Instituto Cultural de Aguascalientes (ICA)/Dirección de Promoción y Difusión,público,Plaza 24 de Enero  núm. 19,Centro,20436,465 958 18 02,,,museodelainsurgencia@hotmail.com,,22.17491,-102.34162,1,7,30,Aguascalientes,Rincón de Romos,Pabellón de Hidalgo,http://sic.gob.mx/ficha.php?table=museo&table_id=1048,2022-06-23T03:07:34-05:00
65a75f99df46a6e2e49c88d5,620,Ciencia y tecnología,Caracol Museo de Ciencias ,1998-05-04,"Caracol Centro Científico y Cultural, A.C.",privado,Av. Club Rotario 3,Centro,22800,646 152 19 93,http://www.caracolbc.org/,,contacto@caracolbc.org,MuseoCaracol,31.85705,-116.62031,2,1,1,Baja California,Ensenada,Ensenada,http://sic.gob.mx/ficha.php?table=museo&table_id=620,2023-12-12T04:52:19-06:00
65a75f99df46a6e2e49c88d6,600,Arqueología,Museo de Historia de Ensenada,1993-05-20,"Centro Social Cívico y Cultural Riviera, A.C.",privado,Blvd. Lázaro Cárdenas 1421,Centro,22800,646 177 05 94,http://museoens.com/,,museoenelriviera@hotmail.com,,31.85859,-116.61976,2,1,1,Baja California,Ensenada,Ensenada,http://sic.gob.mx/ficha.php?table=museo&table_id=600,2022-09-21T05:32:51-05:00
65a75f99df46a6e2e49c88d7,932,Historia,Museo Histórico Regional de Ensenada,1995-05-15,Secretaría de Cultura/INAH,público,Av. Gastélum s/n,Centro,22800,646 178 36 92,,,mhre.inah@gmail.com,,31.8633,-116.62813,2,1,1,Baja California,Ensenada,Ensenada,http://sic.gob.mx/ficha.php?table=museo&table_id=932,2023-12-05T03:59:22-06:00
65a75f99df46a6e2e49c88d8,1809,Ciencia y tecnología,Museo Katsuo,2016-03-10,Facultad de Ciencias Marinas de la Universidad Autónoma de Baja California,público,Carr. Transpeninsular Ensenada-Tijuana 3917,Col. Playitas,22860,646 174 45 70,,,museokatsuo@hotmail.com,KatsuoMuseo,31.86424,-116.66712,2,1,1,Baja California,Ensenada,Ensenada,http://sic.gob.mx/ficha.php?table=museo&table_id=1809,2023-05-16T03:21:06-06:00
65a75f99df46a6e2e49c88d9,653,Antropología,Museo del Estero,1987-04-01,"Fundación Estero Beach, A.C.",privado,Playas del Estero s/n,Ex- Ejido Chapultepec,22785,646 176 62 44,https://hotelesterobeach.com/resort/museo-de-historia-mexicana/,,linda.v@hotelesterobeach.com,,31.77738,-116.61688,2,1,1,Baja California,Ensenada,Ensenada,http://sic.gob.mx/ficha.php?table=museo&table_id=653,2023-05-16T03:09:18-06:00
65a75f99df46a6e2e49c88da,931,Historia,Museo de la Misión de Nuestra Señora de Guadalupe (temporalmente cerrado),1991-08-31,Secretaría de Cultura/INAH,público,"Carr. Federal 3, Mza.025",Col. Valle de Guadalupe,22750,646 150 31 50,https://mediateca.inah.gob.mx/repositorio/islandora/object/museo%3A3259,,,,32.09246,-116.57473,2,1,1,Baja California,Ensenada,Ensenada,http://sic.gob.mx/ficha.php?table=museo&table_id=931,2023-12-12T05:00:19-06:00
65a75f99df46a6e2e49c88db,1662,Especializado,Museo de la Vid y el Vino,2012-08-03,"Patronato del Museo de la Vid y el Vino de Baja California, A.C.",TPND,Carr. Federal Tecate-Ensenada Km 81.3,Col. Valle de Guadalupe,22750,646 156 81 65,https://museodelvinobc.com/,,info@museodelvinobc.com,,32.06974,-116.58673,2,1,1,Baja California,Ensenada,Ensenada,http://sic.gob.mx/ficha.php?table=museo&table_id=1662,2023-10-18T05:35:43-06:00
65a75f99df46a6e2e49c88dc,1281,Historia,Museo de Antigua Aduana Marítima de Ensenada,1992-01-01,Secretaría de Cultura/INAH,público,Av. Ryerson 99,Centro,22800,646 178 25 31,,,cominabc@yahoo.com,,31.86413,-116.63014,2,1,1,Baja California,Ensenada,Ensenada,http://sic.gob.mx/ficha.php?table=museo&table_id=1281,2023-12-12T04:55:42-06:00
65a75f99df46a6e2e49c88dd,592,Antropología,Museo Comunitario Ruso,1991-08-01,,privado,Principal 276,Poblado Francisco Zarco,22750,(646) 155 20 30,,https://www.facebook.com/pg/pilirutavino/photos/?tab=album&album_id=395494427194684,franhuer@hotmail.com,,32.09084,-116.58332,2,1,114,Baja California,Ensenada,Francisco Zarco (Valle de Guadalupe),http://sic.gob.mx/ficha.php?table=museo&table_id=592,2021-06-08T06:25:21-05:00
65a75f99df46a6e2e49c88de,742,Antropología,"Museo Comunitario Altagracia A. de Arauz, San Vicente Ferrer",1991-01-01,Ayuntamiento de San Vicente,público,"Parque Central de San Vicente, km. 90 al Sur de Ensenada",,22900,"(646) 165 66 39, 165 66 35",,,,,31.33648,-116.25538,2,1,243,Baja California,Ensenada,San Vicente,http://sic.gob.mx/ficha.php?table=museo&table_id=742,2021-06-08T05:23:18-05:00
65a75f99df46a6e2e49c88df,886,Ciencia y tecnología,Museo Sol del Niño,1998-09-21,"Patronato Museo Sol del Niño, A.C.",privado,Alfonso Esquer Sández s/n,Centro,21010,,,, contacto@sol.org.mx,soldelnino,32.6529,-115.4732,2,2,1,Baja California,Mexicali,Mexicali,http://sic.gob.mx/ficha.php?table=museo&table_id=886,2023-10-25T08:20:10-06:00
65a75f99df46a6e2e49c88e0,328,Antropología,Instituto  de Investigaciones Culturales Museo UABC,1979-10-30,Universidad Autónoma de Baja California (UABC),público,Calle L s/n esq. Av. Reforma,Col. Nueva,21100,686 552 57 15,http://iic-museo.uabc.mx/,,educativos.iic-museo@uabc.edu.mx,,32.66512,-115.45637,2,2,1,Baja California,Mexicali,Mexicali,http://sic.gob.mx/ficha.php?table=museo&table_id=328,2023-11-16T08:25:51-06:00
65a75f99df46a6e2e49c88e1,1689,Historia,Museo Regional Los Pioneros de Mexicali,1987-03-15,Particular,mixto,Blvd. Adolfo López Mateos 2201,Justo Sierra,21380,686 561 71 25,,, museojaviergalvan@gmail.com,,32.61433,-115.44083,2,2,1,Baja California,Mexicali,Mexicali,http://sic.gob.mx/ficha.php?table=museo&table_id=1689,2023-10-18T06:07:05-06:00
65a75f99df46a6e2e49c88e2,930,Historia,Museo Comunitario El Asalto a las Tierras,1989-10-24,Ayuntamiento de Mexicali,público,Venustiano Carranza s/n esq. Lázaro Cárdenas,Centro,21700,,,,cavb_52@hotmail.com,,,,2,2,225,Baja California,Mexicali,Michoacán de Ocampo,http://sic.gob.mx/ficha.php?table=museo&table_id=930,2020-04-17T14:43:43-05:00
65a75f99df46a6e2e49c88e3,935,Antropología,Museo Comunitario  Cucaphá Juan García Aldama ,1991-09-10,,TPND,Carr. Mexicali-San Felipe km. 57,,21730,(686) 543 76 17,,,,,31.03824,-114.8676,2,2,284,Baja California,Mexicali,San Felipe,http://sic.gob.mx/ficha.php?table=museo&table_id=935,2021-08-20T04:03:13-05:00
65a75f99df46a6e2e49c88e4,114,Historia,Museo Comunitario Tecate,1997-10-12,Ayuntamiento de Tecate/Centro Cultural Tecate (CECUTEC),privado,Tláloc 400,Col. Cuauhtémoc,21480,665 521 31 91,https://www.carem.org/,,info@carem.org,,32.56996,-116.61938,2,3,1,Baja California,Tecate,Tecate,http://sic.gob.mx/ficha.php?table=museo&table_id=114,2022-12-05T05:55:09-06:00
65a75f99df46a6e2e49c88e5,2081,TND,Museo de Sitio de la Zona Arqueológica El Vallecito,NA,Secretaría de Cultura/INAH,público,Población La Rumorosa,,21510,"686 552 35 91,  686 552 35 92",https://www.inah.gob.mx/zonas/zona-arqueologica-el-vallecito,,direccion.bc@inah.gob.mx,,32.53613,-116.08405,2,3,65,Baja California,Tecate,Ejido Jacumé,http://sic.gob.mx/ficha.php?table=museo&table_id=2081,2023-12-05T04:00:40-06:00
65a75f99df46a6e2e49c88e6,1283,Historia,Museo de Sitio Campo Alaska,2005-03-19,Centro INAH de Baja California,mixto,Camino Nacional Circuito Alaska s/n,Poblado La Rumorosa,21510,"686 552 35 91,  686 552 35 92",https://lugares.inah.gob.mx/es/museos-inah/museo/17793-museo-de-sitio-campo-alaska.html,,jbendimez.bc@inah.gob.com; daniel_aguilar@inah.gob.mx,,32.55108,-116.04889,2,3,107,Baja California,Tecate,La Rumorosa,http://sic.gob.mx/ficha.php?table=museo&table_id=1283,2023-12-05T04:00:20-06:00
65a75f99df46a6e2e49c88e7,1917,TND,Museo del Coleccionista de Tijuana,2017-04-29,,Privado,Hermenegildo Galeana 8186 (Calle 7ma),Centro,22000,664 685 99 26,https://mucoti.com.mx/,,informes@mucoti.com.mx,https://twitter.com/mucotijuana,32.52967,-117.03678,2,4,1,Baja California,Tijuana,Tijuana,http://sic.gob.mx/ficha.php?table=museo&table_id=1917,2023-10-20T07:30:28-06:00
65a75f99df46a6e2e49c88e8,598,Historia,Museo de las Californias,2000-02-24,Secretaría de Cultura/Centro Cultural Tijuana (CECUT),mixto,Paseo de los Héroes 9350,Zona Urbana Río Tijuana,22010,664 687 96 52,https://www.cecut.gob.mx/emuseo.php,,museocalifornias@cecut.gob.mx,,32.53028,-117.02289,2,4,1,Baja California,Tijuana,Tijuana,http://sic.gob.mx/ficha.php?table=museo&table_id=598,2023-05-16T02:54:14-06:00
65a75f99df46a6e2e49c88e9,1327,Historia,Museo de Historia de Tijuana,2010-11-27,Instituto Municipal de Arte y Cultura de Tijuana (IMAC),público,Calle 2a. s/n esq. Constitución,Centro,22000,664 638 10 52,https://imac.tijuana.gob.mx/museo.aspx,,museo.imactijuana@gmail.com,,32.53472,-117.03876,2,4,1,Baja California,Tijuana,Tijuana,http://sic.gob.mx/ficha.php?table=museo&table_id=1327,2023-12-12T04:57:58-06:00
65a75f99df46a6e2e49c88ea,2055,Especializado,Museo de la Lucha Libre Mexicana,2017-04-29,Museo de la Siete A.C.,Privado,Hermenegildo Galeana 8186,Centro,22000,664  685 99 26 ,https://www.mullme.com/,,mullme664@gmail.com,mullme664,32.52961,-117.03679,2,4,1,Baja California,Tijuana,Tijuana,http://sic.gob.mx/ficha.php?table=museo&table_id=2055,2023-05-04T07:25:52-06:00
65a75f99df46a6e2e49c88eb,1276,Ciencia y tecnología,Museo Interactivo Tijuana El Trompo,2008-12-09,"Museo Interactivo Tijuana, A.C.",privado,Libramiento Los Insurgentes s/n,"Zona Río Tijuana, Tercera Etapa",22226,664 634 34 76,http://www.eltrompo.org,, info@eltrompo.org,trompoMuseo,32.49527,-116.93828,2,4,1,Baja California,Tijuana,Tijuana,http://sic.gob.mx/ficha.php?table=museo&table_id=1276,2023-10-18T05:56:40-06:00
65a75f99df46a6e2e49c88ec,340,Especializado,Museo de Cera de Tijuana,1993-02-05,"Museo de Cera de Tijuana, S.A. de C.V.",privado,Calle Primera núm. 8281,Centro,22000,664 688 24 78,https://museodeceratijuana.com/,,museodeceradetijuana@hotmail.com,,32.53655,-117.03578,2,4,1,Baja California,Tijuana,Tijuana,http://sic.gob.mx/ficha.php?table=museo&table_id=340,2022-09-21T05:25:34-05:00
65a75f99df46a6e2e49c88ed,934,Historia,Museo de sitio Wa-Kuatay,1995-05-20,Secretaría de Cultura/INAH,comodato,Mar Adriático s/n,Centro,22710,"686 552 35 91, 686 552 35 92",,,buzon.inah.bc@gmail.com; inahbajacalifornia@gmail.com,,32.34188,-117.05851,2,5,1,Baja California,Playas de Rosarito,Playas de Rosarito,http://sic.gob.mx/ficha.php?table=museo&table_id=934,2023-12-05T04:14:13-06:00
65a75f99df46a6e2e49c88ee,1510,Ciencia y tecnología,Museo Juan Rodríguez Cabrillo,2011-08-27,,privado,Bahía a San Quintín s/n,Col. Ballenas,22950,616 165 60 58,,,luisartrgz@live.com,,31.51758,-115.9751,2,6,1,Baja California,San Quintín,San Quintín,http://sic.gob.mx/ficha.php?table=museo&table_id=1510,2023-08-21T05:21:39-06:00
65a75f99df46a6e2e49c88ef,1825,TND,Museo Casa Amarilla,1991-01-01,,,Agustín Olachea s/n,Centro,23600,,,,,,,,3,1,1,Baja California Sur,Comondú,Ciudad Constitución,http://sic.gob.mx/ficha.php?table=museo&table_id=1825,2023-05-17T03:35:00-06:00
65a75f99df46a6e2e49c88f0,2298,TND,Museo Comunitario de La Purísima,2022-12-16,,comunitario,Calle Benito Juárez s/n,Centro,23820,,,,contacto@comondu.gob.mx,,26.18538,-112.07599,3,1,244,Baja California Sur,Comondú,La Purísima,http://sic.gob.mx/ficha.php?table=museo&table_id=2298,2023-01-04T12:15:09-06:00
65a75f99df46a6e2e49c88f1,1696,Arqueología,Museo Regional de Mulegé,1993-01-01,Delegación Municipal de Pueblo Mulegé/Comité Pro Museo Comunitario de Mulegé,público,Cananea s/n,Centro,23900, 615 152 03 28 Dir.de Cultura,,,ag_bean66@hotmail.com,,26.89194,-111.98213,3,2,1,Baja California Sur,Mulegé,Santa Rosalía,http://sic.gob.mx/ficha.php?table=museo&table_id=1696,2023-11-07T04:49:18-06:00
65a75f99df46a6e2e49c88f2,1070,Ciencia y tecnología,Museo de Historia de la Minería ,1996-10-19,Ayuntamiento de Mulegé,público,Jean Mitchell Cousteau 1 y Luis Pasteur,Col. Mesa Francia,23920,(615) 152 29 99,,,hidalgocamachoguillermo@hotmail.com,,27.33885,-112.26723,3,2,1,Baja California Sur,Mulegé,Santa Rosalía,http://sic.gob.mx/ficha.php?table=museo&table_id=1070,2018-10-11T04:38:48-05:00
65a75f99df46a6e2e49c88f3,2394,TND,"Museo Comunitario Sal, Arena y Mar (MUSAM)",2023-06-10,Universidad Autónoma de Baja California Campus Guerrero Negro,,Emiliano Zapta 2811,Col. Marcelo Rubio Ruiz,23940,615 112 21 20,,,hola@musam.mx,,27.96194,-114.05439,3,2,66,Baja California Sur,Mulegé,Guerrero Negro,http://sic.gob.mx/ficha.php?table=museo&table_id=2394,2023-07-20T07:11:51-06:00
65a75f99df46a6e2e49c88f4,1073,Arqueología,Museo de las Pinturas Rupestres de San Ignacio,1994-11-01,Secretaría de Cultura/INAH,público,Profr. Gilberto Valdivia Peña s/n,Col. San Ignacio,23930,615 154 02 22,https://culturabcs.gob.mx/recintos-bcs/mulege?page=3,,keey__75@hotmail.com,,27.28334,-112.89877,3,2,149,Baja California Sur,Mulegé,San Ignacio,http://sic.gob.mx/ficha.php?table=museo&table_id=1073,2023-12-12T05:07:17-06:00
65a75f99df46a6e2e49c88f5,2082,TND,Museo de sitio de la Zona Arqueológica de Sierra San Francisco,NA,Secretaría de Cultura/INAH,,Camino a San Francisco de la Sierra,,23930,615 154 02 22,,,sierrasanfrancisco@hotmail.com,,27.28159,-112.89367,3,2,149,Baja California Sur,Mulegé,San Ignacio,http://sic.gob.mx/ficha.php?table=museo&table_id=2082,2023-12-12T05:08:38-06:00
65a75f99df46a6e2e49c88f6,936,Arqueología,Museo Regional de Antropología e Historia de Baja California Sur,1981-03-30,Secretaría de Cultura/INAH,público,Av. Ignacio Manuel Altamirano s/n  esq. 5 de Mayo y Constitución,Centro,23000,612 122 01 62,,, museorahbcs@gmail.com,,24.15956,-110.30881,3,3,1,Baja California Sur,La Paz,La Paz,http://sic.gob.mx/ficha.php?table=museo&table_id=936,2023-12-12T05:28:53-06:00
65a75f99df46a6e2e49c88f7,1876,Ciencia y tecnología,Museo de la Ballena y Ciencias del Mar,2016-03-21,"Ciencias del Mar, A.C.",TPND,"Antonio Navarro 855, Unidad Cultural Prof. Jesús Castro Agúndez",Centro,23000,612 348 5238,http://www.museodelaballena.org/,,museodelaballena@gmail.com,,24.14852,-110.31721,3,3,1,Baja California Sur,La Paz,La Paz,http://sic.gob.mx/ficha.php?table=museo&table_id=1876,2023-12-12T05:04:42-06:00
65a75f99df46a6e2e49c88f8,2183,TND,Museo de Arte de Baja California Sur,2020-11-12,Gobierno del Estado,público,Calle 5 de Mayo s/n,Col. Centro,23000,612 122 41 76,,,redesmuabcs@gmail.com; gabrielavaladez.muabcs@bcs.gob.mx,,24.15836,-110.30738,3,3,1,Baja California Sur,La Paz,La Paz,http://sic.gob.mx/ficha.php?table=museo&table_id=2183,2022-03-10T06:42:15-06:00
65a75f99df46a6e2e49c88f9,560,Historia,Museo de Historia Regional de Todos Santos,1978-10-06,Centro Cultural Profr. Néstor Agúndez Martínez/Ayuntamiento de La Paz,público,Benito Juárez s/n,Centro,23305,(612) 145 00 59,,,culturaenlapaz@hotmail.com,,23.45098,-110.22327,3,3,3,Baja California Sur,La Paz,Todos Santos,http://sic.gob.mx/ficha.php?table=museo&table_id=560,2019-08-21T08:03:13-05:00
65a75f99df46a6e2e49c88fa,2296,,Museo Ruta de Plata Centro Regional Interpretativo,2019-11-20,"Fundación ALUMBRA / Ándale La Paz, AC ",privado,Ayuntamiento (entre Progreso y Márquez de León),Centro, 23210,612 229 55 87,https://www.museorutadeplata.com/,,info@museorutadeplata.com,,23.80208,-110.10889,3,3,911,Baja California Sur,La Paz,El Triunfo,http://sic.gob.mx/ficha.php?table=museo&table_id=2296,2022-12-16T07:34:52-06:00
65a75f99df46a6e2e49c88fb,1270,Historia,Museo de la Música de El Triunfo,2003-12-12,Instituto Sudcaliforniano de Cultura,público,Hidalgo esq. Carr. al Sur,Centro ,23210,612 127 23 99,https://culturabcs.gob.mx/recinto/28,,,,23.8037,-110.10845,3,3,911,Baja California Sur,La Paz,El Triunfo,http://sic.gob.mx/ficha.php?table=museo&table_id=1270,2022-12-20T10:07:12-06:00
65a75f99df46a6e2e49c88fc,2295,TND,Museo del Vaquero de Las Californias (MuVaCa),2022-11-05,"Fundación ALUMBRA / Ándale La Paz, AC ",Privado,Ayuntamiento (entre Gral. Márquez de León y Minero Núm. 1),,23210,612 218 81 78,https://www.muvaca.com/,,info@muvaca.com,,23.80294,-110.1085,3,3,911,Baja California Sur,La Paz,El Triunfo,http://sic.gob.mx/ficha.php?table=museo&table_id=2295,2023-12-12T05:12:34-06:00
65a75f99df46a6e2e49c88fd,1128,Ciencia y tecnología,Museo de Historia Natural de Cabo San Lucas,2006-10-09,Ayuntamiento de Los Cabos,público,"Calle Lázaro Cárdenas s/n, Plaza Amelia Wilkes",Centro,23410,624 105 06 61,,,museohist@outlook.com,,22.8829,-109.91464,3,8,54,Baja California Sur,Los Cabos,Cabo San Lucas,http://sic.gob.mx/ficha.php?table=museo&table_id=1128,2022-09-26T08:43:56-05:00
65a75f99df46a6e2e49c88fe,2395,TND,Museo de la Casa de Piedra,2023-04-01,,privado,Francisco I Madero 8,Centro Histórico,23880,,,,,,26.00934,-111.34197,3,9,1,Baja California Sur,Loreto,Loreto,http://sic.gob.mx/ficha.php?table=museo&table_id=2395,2023-09-27T08:23:31-06:00
65a75f99df46a6e2e49c88ff,1072,Historia,Museo de las Misiones Jesuitas en Baja California,1973-12-01,Secretaría de Cultura/INAH,público,Salvatierra Misioneros 16,Centro,23880,613 135 04 41,,,joaquin_munoz@inah.gob.mx,,26.01025,-111.34366,3,9,1,Baja California Sur,Loreto,Loreto,http://sic.gob.mx/ficha.php?table=museo&table_id=1072,2023-10-18T06:41:05-06:00
65a75f99df46a6e2e49c8900,2150,TND,Museo comunitario de Bécal,2011-10-08,,privado,"Calle 30 s/n, frente a la glorieta de la artesana",Col. Pablo García,24930,996 102 8574,http://www.museodebecal.com,https://www.facebook.com/museodebecal,museodebecal@gmail.com; jorgejagongora@gmail.com; borrayoaxa@gmail.com,museodebecal,20.4356,-90.0273,4,1,4,Campeche,Calkiní,Bécal,http://sic.gob.mx/ficha.php?table=museo&table_id=2150,2023-10-25T03:46:27-06:00
65a75f99df46a6e2e49c8901,1760,Ciencia y tecnología,Museo Universitario de la Vida ,2014-12-18,Universidad Autónoma de Campeche,público,Av. Lázaro Cárdenas 65,Fracc. Bugambilias,24090,981 811 98 00 ext. 1050610,https://muvi.uacam.mx/,,muvi@uacam.mx,muvi_uac,19.82849,-90.52628,4,2,1,Campeche,Campeche,San Francisco de Campeche,http://sic.gob.mx/ficha.php?table=museo&table_id=1760,2022-10-12T04:00:52-05:00
65a75f99df46a6e2e49c8902,126,Arqueología,Museo de Arquitectura Maya Baluarte de Nuestra Señora de la Soledad,1958-01-01,Secretaría de Cultura/INAH,público,Calle 8 s/n entre 57 y 59,Centro,24000,981 816 91 36,,https://lugares.inah.gob.mx/lugar-112-es,museos.camp@inah.gob.mx,,19.84639,-90.53787,4,2,1,Campeche,Campeche,San Francisco de Campeche,http://sic.gob.mx/ficha.php?table=museo&table_id=126,2023-12-12T05:35:16-06:00
65a75f99df46a6e2e49c8903,1749,Arte,Museo Baluarte de Santa Rosa,1997-01-01,Ayuntamiento de Campeche/Dirección de Cultura/Coordinación de Patrimonio,público,"Cto. Baluartes, Calle 67 s/n",Barrio San Román,24000,(981) 816 64 35,,http://www.campeche.travel/baluarte-de-santa-rosa/,campecheamg@gmail.com,,19.84156,-90.54046,4,2,1,Campeche,Campeche,San Francisco de Campeche,http://sic.gob.mx/ficha.php?table=museo&table_id=1749,2018-11-22T06:43:39-06:00
65a75f99df46a6e2e49c8904,739,Arqueología,Museo de Arqueología Maya. Fuerte de San Miguel,1965-10-01,Secretaría de Cultura/INAH,público,"Av. Escénica s/n, Carr. Campeche-Lerma",,24039,981 816 9136 ,,,museos.camp@inah.gob.mx; iliana_pozos@inah.gob.mx,,19.82467,-90.56847,4,2,1,Campeche,Campeche,San Francisco de Campeche,http://sic.gob.mx/ficha.php?table=museo&table_id=739,2023-12-12T05:32:34-06:00
65a75f99df46a6e2e49c8905,2009,TND,Museo de Arqueología Subacuática Fuerte de San José El Alto,2017-12-07,Secretaría de Cultura/INAH,TPND,Calle 5 por Av. Francisco Morazán s/n,Col. San José El Alto,24026,981 816 91 36 ext. 138036,,,museos.camp@inah.gob.mx,INAHCampeche,19.86056,-90.51048,4,2,1,Campeche,Campeche,San Francisco de Campeche,http://sic.gob.mx/ficha.php?table=museo&table_id=2009,2023-12-12T05:33:53-06:00
65a75f99df46a6e2e49c8906,1962,Historia,Museo del Centro Cultural Casa 6,2000-05-01,Secretaría de Turismo de Campeche,público,Calle 57 núm. 6 entre 8 y 10,Centro,24000,55 1174 3040,https://www.mexicoescultura.com/recinto/56982/centro-cultural-casa-6.html,,emilio.vazquez@campeche.gob.mx,,19.84561,-90.53737,4,2,1,Campeche,Campeche,San Francisco de Campeche,http://sic.gob.mx/ficha.php?table=museo&table_id=1962,2023-05-04T02:52:02-06:00
65a75f99df46a6e2e49c8907,1814,Arte,Museo de Arte Sacro (Capilla de Jesús de Nazareno),2002-01-01,Catedral de Nuestra Señora de la Purísima Concepción,TPND,Calle 55 entre 10 y 8,Centro,24000,(981) 816 31 44,,,hola@TurismoCampeche.com,,19.84615,-90.53631,4,2,1,Campeche,Campeche,San Francisco de Campeche,http://sic.gob.mx/ficha.php?table=museo&table_id=1814,2021-01-15T03:51:01-06:00
65a75f99df46a6e2e49c8908,1778,Historia,Museo El Palacio Centro Cultural,2015-03-17,Centro Cultural El Palacio/Secretaría de Cultura de Campeche,público,Calle 8 núm. 257,Centro,24000,981 811 03 66,,,museoelpalaciocc@gmail.com,,19.84615,-90.53747,4,2,1,Campeche,Campeche,San Francisco de Campeche,http://sic.gob.mx/ficha.php?table=museo&table_id=1778,2022-09-05T07:54:30-05:00
65a75f99df46a6e2e49c8909,1601,Ciencia y tecnología,Casa de la Tecnología de Campeche DGETI SECUD,1995-02-15,"Secretaría de Educación, Cultura y Deporte de Campeche",público,"Av. Casa de Justicia 12, PB",Col. Fracciorama 2000,24090,(981) 813 21 43,,http://www.somedicyt.org.mx/congreso_2003/Memorias/descargas_pdf/educacion_no_formal/descarga_ojeda_macossay.pdf,casa_tec_campeche@hotmail.com,,19.82404,-90.53054,4,2,1,Campeche,Campeche,San Francisco de Campeche,http://sic.gob.mx/ficha.php?table=museo&table_id=1601,2018-05-18T13:32:19-05:00
65a75f99df46a6e2e49c890a,2039,TND,Museo del Archivo General del Estado de Campeche,2007-08-07,Secretaría de Gobierno de Campeche,TPND,Calle 12 núm. 159,Centro,24000,981 816 09 39,,,archivo.general@campeche.gob.mx,,19.84435,-90.53696,4,2,1,Campeche,Campeche,San Francisco de Campeche,http://sic.gob.mx/ficha.php?table=museo&table_id=2039,2023-12-12T05:38:06-06:00
65a75f99df46a6e2e49c890b,540,Historia,"Museo de la Ciudad, Baluarte de San Carlos",1989-01-01,Ayuntamiento de Campeche,público,Calle 8 s/n,Centro,24000,981 811 39 90,,https://turismocampeche.com/folio/baluarte-de-san-carlos/,detc@gmail.com,,19.84458,-90.54065,4,2,1,Campeche,Campeche,San Francisco de Campeche,http://sic.gob.mx/ficha.php?table=museo&table_id=540,2022-10-12T04:14:53-05:00
65a75f99df46a6e2e49c890c,2108,TND,Museo de sitio de la Zona Arqueológica de Edzná,NA,Secretaría de Cultura/INAH,,Carr. Federal Campeche-Edzná KM. 55 (localizado en el entronque con el Km 45 de la carr. núm. 188),,,981 816 91 11,,,candelaria_duarte@inah.gob.mx; direccion.camp@inah.gob.mx,,19.59712,-90.23059,4,2,92,Campeche,Campeche,Uzahzil-Edzná (Nohyaxché),http://sic.gob.mx/ficha.php?table=museo&table_id=2108,2023-12-12T05:36:22-06:00
65a75f99df46a6e2e49c890d,1408,Arqueología,Museo Victoriano Niévez Céspedes ,1998-07-16,Ayuntamiento de Ciudad del Carmen,público,Calle 22 x 41 y 41 B,Centro,24100,938 382 13 87,,,,,18.64252,-91.83906,4,3,1,Campeche,Carmen,Ciudad del Carmen,http://sic.gob.mx/ficha.php?table=museo&table_id=1408,2023-12-12T05:49:04-06:00
65a75f99df46a6e2e49c890e,1918,TND,Guanal Museo Universitario de Ciencias y Artes,2016-06-14,Universidad Autónoma del Carmen/Secretaría de Cultura de Campeche,TPND,Calle 20 B núm.  88,Col. Guanal,24139,938 381 10 18,,,gumuca.unacar@outlook.com,GuanalMuseo,18.63303,-91.83227,4,3,1,Campeche,Carmen,Ciudad del Carmen,http://sic.gob.mx/ficha.php?table=museo&table_id=1918,2023-05-16T05:26:52-06:00
65a75f99df46a6e2e49c890f,595,Arqueología,Museo de Arqueología Maya del Camino Real de Hecelchakán MAH,1965-08-16,Secretaría de Cultura/INAH,público,Calle 18 y 20 s/n,Barrio de la Conquista,24800,981 816 9136,,,museos.camp@inah.gob.mx; iliana_pozos@inah.gob.mx,,20.1781,-90.13302,4,5,1,Campeche,Hecelchakán,Hecelchakán,http://sic.gob.mx/ficha.php?table=museo&table_id=595,2023-12-21T06:08:59-06:00
65a75f99df46a6e2e49c8910,2204,TND,Museo de Palizada,2021-08-05,Ayuntamiento de Palizada,Público,Av. Miguel Hidalgo 18 esq. Altamirano y Ocampo,Centro,24200,,,,museodepalizada@gmail.com,museodepalizada,18.25358,-92.09108,4,7,1,Campeche,Palizada,Palizada,http://sic.gob.mx/ficha.php?table=museo&table_id=2204,2023-06-08T05:10:15-06:00
65a75f99df46a6e2e49c8911,2249,TND,Sala Introductoria a la Zona Arqueológica de Calakmul,NA,Secretaría de Cultura/INAH,,Camino a la reserva de la biósfera de Calakmul km 60,,24477,981 816 81 79 ,,,candelaria_duarte@inah.gob.mx; direccion.camp@inah.gob.mx,,18.11173,-89.80216,4,10,1,Campeche,Calakmul,Xpujil,http://sic.gob.mx/ficha.php?table=museo&table_id=2249,2023-10-17T03:12:07-06:00
65a75f99df46a6e2e49c8912,1305,Historia,Museo José Ángel Villarreal,1993-10-06,Ayuntamiento de Acuña,público,Blvd. Adolfo López Mateos s/n ,Col. Benito Juárez,26230,(877) 773 30 29,,,direcciondearteyculturaacuna@gmail.com,,29.33027,-100.94063,5,2,1,Coahuila de Zaragoza,Acuña,Ciudad Acuña,http://sic.gob.mx/ficha.php?table=museo&table_id=1305,2017-03-10T13:31:23-06:00
65a75f99df46a6e2e49c8913,1838,Historia,Museo Cultural de Arteaga,2004-03-23,Ayuntamiento de Arteaga/Centro Cultural Coronel Lucio Dávila Rumayor,público,Miguel Hidalgo y Costilla 6 Poniente Norte,Col. Jardín,22350,"(844) 483 00 82, 483 00 33 ext. 127",,,"culturadearteaga@hotmail.com, museoculturaldearteaga@live.com.mx",,25.45051,-100.85008,5,4,1,Coahuila de Zaragoza,Arteaga,Arteaga,http://sic.gob.mx/ficha.php?table=museo&table_id=1838,2018-10-19T09:52:54-05:00
65a75f99df46a6e2e49c8914,1457,Antropología,Museo de las Momias de San Antonio de las Alazanas,2010-10-31,Secretaría de Cultura de Coahuila,público,Othón Figueroa s/n,,25370,(844) 483 95 72,,,turismo_arteaga@hotmail.com,,25.25713,-100.54934,5,4,107,Coahuila de Zaragoza,Arteaga,San Antonio de las Alazanas,http://sic.gob.mx/ficha.php?table=museo&table_id=1457,2018-09-25T07:10:43-05:00
65a75f99df46a6e2e49c8915,96,Historia,Museo Casa Venustiano Carranza,1959-12-29,Secretaría de Cultura de Coahuila,público,Pte. Carranza Nte. 105,Centro,27640,869 696 13 75,,,museovczac.cienega@hotmail.com,,26.98727,-102.06703,5,7,1,Coahuila de Zaragoza,Cuatro Ciénegas,Cuatro Ciénegas de Carranza,http://sic.gob.mx/ficha.php?table=museo&table_id=96,2023-05-24T06:27:20-06:00
65a75f99df46a6e2e49c8916,1884,TND,Museo de la Casa de la Cultura de Cuatro Ciénegas,1994-10-05,"Casa de la Cultura Cuatro Ciénegas, A.C.",comodato,Hidalgo 401 Pte.,Zona Centro,27640,(869) 696 17 17,https://www.facebook.com/casadelacultura.cuatrocienegas,,cotibaca@hotmail.com,,26.98558,-102.06953,5,7,1,Coahuila de Zaragoza,Cuatro Ciénegas,Cuatro Ciénegas de Carranza,http://sic.gob.mx/ficha.php?table=museo&table_id=1884,2018-11-14T07:24:18-06:00
65a75f99df46a6e2e49c8917,1832,TND,Museo Ejido San Juan de Boquillas,NA,,TPND,"Carretera Cuatro Ciénegas - Monclova, Km. 15",Ejido San Juan de Boquillas,27650,(869) 696 12 24,,,,,,,5,7,1,Coahuila de Zaragoza,Cuatro Ciénegas,Cuatro Ciénegas de Carranza,http://sic.gob.mx/ficha.php?table=museo&table_id=1832,2017-03-10T13:20:51-06:00
65a75f99df46a6e2e49c8918,2362,,Génesis 4C Museo Vivo & Laboratorio,2023-04-06,"Laboratorio Genesis 4C, Cuatro Ciénegas, Coahuila",privado,Miguel Hidalgo 200,Centro,27640,866 175 25 35  ,https://genesis4c.mx/,,informes@genesis4c.mx; social@genesis4c.mx; harocha@genesis4c.mx,,26.98699,-102.06513,5,7,1,Coahuila de Zaragoza,Cuatro Ciénegas,Cuatro Ciénegas de Carranza,http://sic.gob.mx/ficha.php?table=museo&table_id=2362,2023-05-17T12:22:06-06:00
65a75f99df46a6e2e49c8919,951,Arqueología,Museo Comunitario Casa de la Cultura,1987-09-01,Municipio de Francisco I. Madero,TPND,Vicente Guerrero s/n,Col. Benito Juárez,27900,(872) 773 02 92,,,casadelacultura.madero@hotmail.com,,25.767,-103.27063,5,9,1,Coahuila de Zaragoza,Francisco I. Madero,Francisco I. Madero (Chávez),http://sic.gob.mx/ficha.php?table=museo&table_id=951,2017-04-26T11:47:07-05:00
65a75f99df46a6e2e49c891a,2306,TND,Museo Laboratorio Paleontológico de General Cepeda,NA,Ayuntamiento de General Cepeda,,Juan Antonio de la Fuente 207,,25950 ,842 425 04 82,,,turismo@generalcepeda.gob.mx,,25.37945,-101.47943,5,11,1,Coahuila de Zaragoza,General Cepeda,General Cepeda,http://sic.gob.mx/ficha.php?table=museo&table_id=2306,2023-01-20T06:52:27-06:00
65a75f99df46a6e2e49c891b,1630,Historia,Museo de Historia Atlahuaco,2003-03-23,Particular,privado,De la Fuente esq. Benito Juárez,Centro,25950,842 425 03 25,,,atlahuacomuseo@gmail.com,,25.37863,-101.47681,5,11,1,Coahuila de Zaragoza,General Cepeda,General Cepeda,http://sic.gob.mx/ficha.php?table=museo&table_id=1630,2022-03-07T07:14:09-06:00
65a75f99df46a6e2e49c891c,85,Ciencia y tecnología,Museo Paleontológico ,1994-11-25,Ayuntamiento de Rincón Colorado,público,Km.43.5 de la Carr. Saltillo-Torreón,,25950,,,,,,25.51547,-101.3268,5,11,58,Coahuila de Zaragoza,General Cepeda,Rincón Colorado,http://sic.gob.mx/ficha.php?table=museo&table_id=85,2023-01-18T11:50:57-06:00
65a75f99df46a6e2e49c891d,1686,Historia,Museo Emilio Indio Fernández,2005-04-20,Ayuntamiento de Juárez,TPND,Juárez s/n,Centro,20450,861 613 52 69,,,chucho_corona@hotmail.com,,27.6069,-100.72775,5,15,1,Coahuila de Zaragoza,Juárez,Juárez,http://sic.gob.mx/ficha.php?table=museo&table_id=1686,2021-04-26T05:24:43-05:00
65a75f99df46a6e2e49c891e,33,Historia,Museo Juarista,1963-09-04,Secretaría de Educación Pública del Estado de Coahuila,privado,Zaragoza,Ejido Congregación Hidalgo,27468,(871) 749 10 00,,http://www.facebook.com/pages/Museo-Juarista/207489912633275,info@museojuarista.com.mx,,,,5,17,1,Coahuila de Zaragoza,Matamoros,Matamoros,http://sic.gob.mx/ficha.php?table=museo&table_id=33,2018-09-26T04:44:00-05:00
65a75f99df46a6e2e49c891f,960,Arqueología,Museo Municipal Gral. Jesús González Herrera,1993-01-01,Ayuntamiento de Matamoros,TPND,Pabellón 10,Centro,27446,871 749 10 13,,https://es-la.facebook.com/MuseoMunicipalGral.JesusGlzHerrera,museomatamoros@gmail.com,,25.52936,-103.22983,5,17,1,Coahuila de Zaragoza,Matamoros,Matamoros,http://sic.gob.mx/ficha.php?table=museo&table_id=960,2023-09-21T08:12:55-06:00
65a75f99df46a6e2e49c8920,68,Historia,Museo El Polvorín,1977-08-12,Ayuntamiento de Monclova,público,Ocampo s/n,Centro,25700,866 633 17 45,,,museo_elpolvorin@hotmail.com,,26.89465,-101.41869,5,18,1,Coahuila de Zaragoza,Monclova,Monclova,http://sic.gob.mx/ficha.php?table=museo&table_id=68,2023-04-28T05:22:11-06:00
65a75f99df46a6e2e49c8921,470,Historia,Museo Coahuila y Texas,1993-05-04,Secretaría de Cultura de Coahuila/Ayuntamiento de Monclova,público,Ermita s/n,Sector El Pueblo,25700,866  633 46 92,,,museocoahytexas@hotmail.com; arteycultura@monclova.gob.mx,MCoahyTex,26.90714,-101.4154,5,18,1,Coahuila de Zaragoza,Monclova,Monclova,http://sic.gob.mx/ficha.php?table=museo&table_id=470,2023-05-24T06:39:00-06:00
65a75f99df46a6e2e49c8922,898,Arte,Museo Biblioteca Harold R. Pape,1977-08-14,"Campo San Antonio Fundación Pape, A.C.",privado,Blvd. Harold R. Pape 505 Sur,Col. Guadalupe,25750,866 631 04 04,http://www.bibliotecapape.org/,,bibliotecapape@mbp.org.mx,,26.90031,-101.42872,5,18,1,Coahuila de Zaragoza,Monclova,Monclova,http://sic.gob.mx/ficha.php?table=museo&table_id=898,2023-05-24T06:18:48-06:00
65a75f99df46a6e2e49c8923,1906,Arte,Museo Quinta Julio Galán Romo ,2016-12-19,"Amigos de la Cultura de Múzquiz, A.C.",comodato,Adolfo E. Romo 1422 Pte.,La Cascada,26340,864  616 65 22,,,amigosdelaculturademuzquiz@gmail.com,,27.86779,-101.52465,5,20,1,Coahuila de Zaragoza,Múzquiz,Ciudad Melchor Múzquiz,http://sic.gob.mx/ficha.php?table=museo&table_id=1906,2023-04-25T04:58:45-06:00
65a75f99df46a6e2e49c8924,1882,TND,Museo de Ganadería,NA,Ayuntamiento de Múzquiz,,Veracruz s/n,,,864 116 3923,,,,,27.87751,-101.49861,5,20,1,Coahuila de Zaragoza,Múzquiz,Ciudad Melchor Múzquiz,http://sic.gob.mx/ficha.php?table=museo&table_id=1882,2023-04-28T05:46:00-06:00
65a75f99df46a6e2e49c8925,57,Historia,Museo Histórico de Múzquiz,1984-11-20,Ayuntamiento de Múzquiz,público,Hidalgo 205,Centro,26340,861 616 69 68,,,museomuzquiz@hotmail.com,,27.87655,-101.51498,5,20,1,Coahuila de Zaragoza,Múzquiz,Ciudad Melchor Múzquiz,http://sic.gob.mx/ficha.php?table=museo&table_id=57,2023-04-25T04:40:39-06:00
65a75f99df46a6e2e49c8926,1840,Ciencia y tecnología,Museo de Paleontología de Múzquiz,NA,Ayuntamiento de Múzquiz,TPND,Adolfo E. Romo s/n,La Cascada,26340,864  616 48 00,,,,,27.86315,-101.52832,5,20,1,Coahuila de Zaragoza,Múzquiz,Ciudad Melchor Múzquiz,http://sic.gob.mx/ficha.php?table=museo&table_id=1840,2023-04-25T04:56:26-06:00
65a75f99df46a6e2e49c8927,2140,TND,Museo Cultural de Nadadores Dr. Américo de la Cruz,2016-12-12,Sistema Estatal de Museos de Coahuila                                                                      ,comodato,Vicente Guerrero 129 esq. Manuel Acuña,Centro,27550,"(866) 638 38 11, 732 44 76",https://www.facebook.com/museoculturaldenadadores/,,americo_de_lacruz@yahoo.com.mx; jvillarrealc@hotmail.com,,27.02608,-101.59111,5,21,1,Coahuila de Zaragoza,Nadadores,Nadadores,http://sic.gob.mx/ficha.php?table=museo&table_id=2140,2021-07-14T05:29:03-05:00
65a75f99df46a6e2e49c8928,1702,Historia,Museo de Ocampo,1997-06-22,Municipio de Ocampo,público,Zaragoza s/n,Centro,27500,869 695 00 80,,,ram_saldana@hotmail.com,,27.31351,-102.39673,5,23,1,Coahuila de Zaragoza,Ocampo,Ocampo,http://sic.gob.mx/ficha.php?table=museo&table_id=1702,2021-04-20T08:33:13-05:00
65a75f99df46a6e2e49c8929,1822,Especializado,Museo del Vino. Casa Madero,1970-01-01,"Casa Madero, S.A. de C.V.",privado,Carretera Paila-Parras km. 18.5,Hacieda San Lorenzo,27980,(842) 422 0100 ext. 108,,,tienda@madero.com.mx,,,,5,24,1,Coahuila de Zaragoza,Parras,Parras de la Fuente,http://sic.gob.mx/ficha.php?table=museo&table_id=1822,2018-06-21T12:58:00-05:00
65a75f99df46a6e2e49c892a,2065,TND,Museo del Centro Cultural Nancy Cárdenas,1903-01-01,Secretaría de Cultura del Estado de Coahuila,público,Allende 202 Pte.,Centro,27980,(842) 422 24 67 ,https://coahuila.gob.mx/#,,segurateniente@hotmail.com,,25.44049,-102.18313,5,24,1,Coahuila de Zaragoza,Parras,Parras de la Fuente,http://sic.gob.mx/ficha.php?table=museo&table_id=2065,2018-11-20T05:45:05-06:00
65a75f99df46a6e2e49c892b,1837,TND,Museo del Niño El Chapulín,2015-09-01,Gobierno Municipal,TPND,Zaragoza s/n,Centro,26000,878 108 7936,,,,MuseoChapulin,28.70482,-100.51377,5,25,1,Coahuila de Zaragoza,Piedras Negras,Piedras Negras,http://sic.gob.mx/ficha.php?table=museo&table_id=1837,2023-05-24T08:14:44-06:00
65a75f99df46a6e2e49c892c,1836,Historia,Museo de la Frontera Norte,2016-06-20,Ayuntamiento de Piedras Negras,público,Abasolo 508,Centro,26000,(878) 782 83 60,,https://www.facebook.com/museofronteranorte/?fref=ts,mfronteranorte@gmail.com,MFronteraNorte,28.70627,-100.51452,5,25,1,Coahuila de Zaragoza,Piedras Negras,Piedras Negras,http://sic.gob.mx/ficha.php?table=museo&table_id=1836,2018-09-25T05:49:26-05:00
65a75f99df46a6e2e49c892d,1881,TND,Museo de Historia de Ramos Arizpe,NA,Ayuntamiento de Ramos Arizpe/Dirección de Cultura,,Gral. Charles s/n esq. Allende,Centro,56050,844 113 67 60,,,aaron-lopez@hotmail.com; pamemfv30@outlook.es,,25.54323,-100.95078,5,27,1,Coahuila de Zaragoza,Ramos Arizpe,Ramos Arizpe,http://sic.gob.mx/ficha.php?table=museo&table_id=1881,2023-09-26T04:10:25-06:00
65a75f99df46a6e2e49c892e,1685,Historia,Museo de Francisco Villa,2010-11-12,Secretaría de Cultura de Coahuila,TPND,Emilio Carranza esq. Gómez Farías,Centro,26700,861 612 91 34,,,cultura_sabinas@hotmail.com,,27.84927,-101.11845,5,28,1,Coahuila de Zaragoza,Sabinas,Sabinas,http://sic.gob.mx/ficha.php?table=museo&table_id=1685,2023-04-25T05:19:59-06:00
65a75f99df46a6e2e49c892f,1703,Ciencia y tecnología,Museo Nacional del Carbón,1985-01-01,"Patronato del Museo Nacional del Carbón, A.C.",mixto,Blvd. Doctor José Armando Dávila Moncada s/n,Centro,26700,861 613 41 43,https://www.facebook.com/pages/Museo-Nacional-del-Carb%C3%B3n/1464347150464643,https://www.mexicoescultura.com/recinto/68080/museo-nacional-del-carbon.html#prettyPhoto,museodelcarbonagujita@gmail.com,,27.89608,-101.16114,5,28,1,Coahuila de Zaragoza,Sabinas,Sabinas,http://sic.gob.mx/ficha.php?table=museo&table_id=1703,2023-04-28T06:56:47-06:00
65a75f99df46a6e2e49c8930,1539,Arte,Museo de Artes Gráficas (MAG),2012-03-29,Secretaría de Cultura de Coahuila,público,Xicoténcatl 264,Centro,25000,844 414 17 81,,,museodeartesgraficassaltillo@gmail.com,MuseoAGraficas,25.42232,-101.00656,5,30,1,Coahuila de Zaragoza,Saltillo,Saltillo,http://sic.gob.mx/ficha.php?table=museo&table_id=1539,2023-05-24T06:47:38-06:00
65a75f99df46a6e2e49c8931,1644,Arqueología,Sala de Arqueología Profr. Carlos Cárdenas Villarreal,2012-08-01,Benemérita Escuela Normal de Coahuila,público,Calz. de los Maestros 858,Centro Histórico,25000,844 412 82 73,,,benc.enlinea@gmail.com,,25.42722,-101.00803,5,30,1,Coahuila de Zaragoza,Saltillo,Saltillo,http://sic.gob.mx/ficha.php?table=museo&table_id=1644,2023-09-26T06:13:35-06:00
65a75f99df46a6e2e49c8932,1423,Arte,Museo del Sarape y Trajes Mexicanos,2008-06-23,Secretaría de Cultura de Coahuila,público,Ignacio Allende Sur 160,Centro,25000,844 481 69 00,,,museodelsarapeytrajesmexicanos@gmail.com,,25.42099,-101.00172,5,30,1,Coahuila de Zaragoza,Saltillo,Saltillo,http://sic.gob.mx/ficha.php?table=museo&table_id=1423,2023-10-31T05:25:46-06:00
65a75f99df46a6e2e49c8933,1643,Ciencia y tecnología,Museo de Paleontología de la Benemérita Escuela Normal de Coahuila,1909-02-01,Gobierno del Estado de Coahuila/Sistema Estatal de Información Educativa,público,Calz. de los Maestros 858,Centro Histórico,25000,(844) 412 82 73,http://www.benc.sepc.edu.mx/museos/index_museos_benc.html,,museosbenc@gmail.com,,25.42714,-101.00824,5,30,1,Coahuila de Zaragoza,Saltillo,Saltillo,http://sic.gob.mx/ficha.php?table=museo&table_id=1643,2019-03-07T08:52:43-06:00
65a75f99df46a6e2e49c8934,1642,Historia,Museo de Catón,1997-02-27,Particular,privado,Gral. Cepeda Sur 443,Centro Histórico,25000,844 412 82 12,,http://radioconcierto.org.mx/museo/,luzmariafuentes@radioconcierto.org.mx,,25.4177,-100.99962,5,30,1,Coahuila de Zaragoza,Saltillo,Saltillo,http://sic.gob.mx/ficha.php?table=museo&table_id=1642,2023-09-28T02:56:52-06:00
65a75f99df46a6e2e49c8935,2060,TND,Salas Carranza,2013-01-01,Secretaría de Cultura de Coahuila,,Juárez y Zaragoza s/n,Zona Centro,,(844) 411 8500,,,,,25.42182,-101.00098,5,30,1,Coahuila de Zaragoza,Saltillo,Saltillo,http://sic.gob.mx/ficha.php?table=museo&table_id=2060,2018-10-31T06:11:56-06:00
65a75f99df46a6e2e49c8936,1641,Especializado,Museo de la Muñeca ,2013-04-30,"Complejo Museográfico Cultura y Tradiciones en Movimiento, A.C.",privado,Ignacio Allende Sur 720 altos,Centro,25000,(844) 427 62 32,,https://es-la.facebook.com/mumusalt/,museodelacatrina@hotmail.com ,,25.41643,-101.00316,5,30,1,Coahuila de Zaragoza,Saltillo,Saltillo,http://sic.gob.mx/ficha.php?table=museo&table_id=1641,2019-01-07T03:43:46-06:00
65a75f99df46a6e2e49c8937,1639,Arte,Sala Museográfica de las Leyendas ,2013-03-12,"Complejo Museográfico Cultura y Tradiciones en Movimiento, A.C.",TPND,Ignacio Allende Sur 720,Centro,25000,(844) 414 31 48,,,museodelacatrina@hotmail.com ,,25.41642,-101.00316,5,30,1,Coahuila de Zaragoza,Saltillo,Saltillo,http://sic.gob.mx/ficha.php?table=museo&table_id=1639,2018-12-13T07:03:57-06:00
65a75f99df46a6e2e49c8938,1640,TND,Museo Madero Espiritista,2013-03-12,"Complejo Museográfico Cultura y Tradiciones en Movimiento, A.C.",TPND,Ignacio Allende Sur 720,Centro,25000,(844) 414 31 48,,,museodelacatrina@hotmail.com ,,25.41657,-101.00385,5,30,1,Coahuila de Zaragoza,Saltillo,Saltillo,http://sic.gob.mx/ficha.php?table=museo&table_id=1640,2018-08-29T06:16:09-05:00
65a75f99df46a6e2e49c8939,954,Ciencia y tecnología,Museo de Historia Natural Profr. Rafael Bernardo Narro Rodriguez ,1867-10-25,Universidad Autónoma de Coahuila/Ateneo Fuente,público,Blvd. Venustiano Carranza s/n esq. Av. Universidad,Col. República Ote.,25280,844 415 75 72 ext. 112,,,miguelrdzc@hotmail.com,,25.44041,-100.99131,5,30,1,Coahuila de Zaragoza,Saltillo,Saltillo,http://sic.gob.mx/ficha.php?table=museo&table_id=954,2021-08-11T08:01:54-05:00
65a75f99df46a6e2e49c893a,894,Ciencia y tecnología,Museo de las Aves de México,1993-11-15,,público,Miguel Hidalgo 151,Centro,25000,844 414 01 67,https://musave.org/,,informes@museodelasaves.org,,25.41646,-101.00249,5,30,1,Coahuila de Zaragoza,Saltillo,Saltillo,http://sic.gob.mx/ficha.php?table=museo&table_id=894,2022-09-22T04:13:23-05:00
65a75f99df46a6e2e49c893b,1422,Historia,Museo del Palacio,2009-07-24,Secretaría de Cultura de Coahuila,público,"Juárez e Hidalgo s/n, planta baja",Centro,25000,844 411 85 00 ext. 1170,,,corelaav@outlook.com; minagarlo47@gmail.com,,25.42205,-101.0009,5,30,1,Coahuila de Zaragoza,Saltillo,Saltillo,http://sic.gob.mx/ficha.php?table=museo&table_id=1422,2022-05-16T07:00:13-05:00
65a75f99df46a6e2e49c893c,896,Ciencia y tecnología,Museo del Desierto,1999-11-25,"Amigos del Desierto de Coahuila, A.C.",privado,Carlos Abedrop Dávila 3745,"Parque las Maravillas, Centro Metropolitano",25022,844 986 9000,http://www.museodeldesierto.org,,contacto@museodeldesierto.org,museodeldesiert,25.41365,-100.96367,5,30,1,Coahuila de Zaragoza,Saltillo,Saltillo,http://sic.gob.mx/ficha.php?table=museo&table_id=896,2022-04-01T06:31:47-06:00
65a75f99df46a6e2e49c893d,1635,Arte,Sala de Arte Colonial Artemio del Valle Arizpe ,1933-09-01,Universidad Autónoma de Coahuila/Escuela de Bachilleres Ateneo Fuente,público,Blvd. Venustiano Carranza s/n esq. Av. Universidad,Col. República Oriente,25280,(844) 415 75 72,,,erikafloresp@gmail.com,,25.44043,-100.9913,5,30,1,Coahuila de Zaragoza,Saltillo,Saltillo,http://sic.gob.mx/ficha.php?table=museo&table_id=1635,2018-08-03T06:11:20-05:00
65a75f99df46a6e2e49c893e,1634,Arte,Pinacoteca  Artemio de Valle Arizpe,1918-01-01,Universidad Autónoma de Coahuila/Ateneo Fuente,público,Venustiano Carranza esq. Av. Universidad s/n,Col. República Oriente,25280,(844) 415 75 72,,,,,25.44046,-100.99127,5,30,1,Coahuila de Zaragoza,Saltillo,Saltillo,http://sic.gob.mx/ficha.php?table=museo&table_id=1634,2018-12-13T06:58:50-06:00
65a75f99df46a6e2e49c893f,890,Arte,Museo Rubén Herrera,2002-04-05,Gobierno Municipal de Saltillo,público,General Victoriano Cepeda 105,Centro,25000,(844) 420 98 23,,,ciudadmagdala@gmail.com; m.rubenherrera@gmail.com,,25.42059,-100.99802,5,30,1,Coahuila de Zaragoza,Saltillo,Saltillo,http://sic.gob.mx/ficha.php?table=museo&table_id=890,2018-08-03T06:22:52-05:00
65a75f99df46a6e2e49c8940,1636,Historia,Museo de la  Batalla de la Angostura,2008-01-14,"Patronato del Museo Batalla de la Angostura, A.C.",público,Nicolás Bravo 120,Centro Histórico,25000,(844) 410 82 05,,https://www.facebook.com/pages/MUSEO-DE-LA-BATALLA-DE-LA-ANGOSTURA/343073852316,museoangostura.47@gmail.com,,25.42105,-100.99957,5,30,1,Coahuila de Zaragoza,Saltillo,Saltillo,http://sic.gob.mx/ficha.php?table=museo&table_id=1636,2018-09-25T05:26:19-05:00
65a75f99df46a6e2e49c8941,891,Historia,Sala Museográfica del Recinto de Juárez,1977-03-21,Secretaría de Educación del Estado de Coahuila,público,Juárez 186,Centro,25000,(844) 412 54 12,,,berza36@hotmail.com; recintodejuarez.saltillo@hotmail.com,,25.4211,-100.99959,5,30,1,Coahuila de Zaragoza,Saltillo,Saltillo,http://sic.gob.mx/ficha.php?table=museo&table_id=891,2017-03-10T13:51:20-06:00
65a75f99df46a6e2e49c8942,1424,Historia,Museo del Normalismo,2008-05-03,Secretaría de Cultura de Coahuila,público,Paseo de los Maestros 836,Centro,25000,(844) 481 68 90,,https://es-la.facebook.com/museo.delnormalismo/,museodelnormalismo@hotmail.com,,25.4266,-101.0074,5,30,1,Coahuila de Zaragoza,Saltillo,Saltillo,http://sic.gob.mx/ficha.php?table=museo&table_id=1424,2019-04-22T05:46:37-05:00
65a75f99df46a6e2e49c8943,1458,Arte,Museo de la Katrina,2009-11-02,"Complejo Museográfico Cultura y Tradiciones en Movimiento/Amigos del Museo de las Catrinas, A.C.",privado,Allende Sur 720,Centro,25000,844 414 31 48,,https://www.facebook.com/MuseolaKatrina/,museodelacatrina@hotmail.com,,25.41658,-101.00322,5,30,1,Coahuila de Zaragoza,Saltillo,Saltillo,http://sic.gob.mx/ficha.php?table=museo&table_id=1458,2022-12-27T12:45:21-06:00
65a75f99df46a6e2e49c8944,1304,Especializado,Museo de la Cultura Taurina,2009-07-25,Secretaría de Cultura de Coahuila,público,Xicoténcatl 283,Centro,25000,(844) 410 20 21,,http://www.sedeturcoahuila.gob.mx/inicio/?p=154,museodelaculturataurina283@gmail.com,,25.42199,-101.00625,5,30,1,Coahuila de Zaragoza,Saltillo,Saltillo,http://sic.gob.mx/ficha.php?table=museo&table_id=1304,2019-09-18T05:39:26-05:00
65a75f99df46a6e2e49c8945,1632,Historia,Museo de los Presidentes Coahuilenses ,2010-10-28,Gobierno del Estado de Coahuila,público, Nicolás Bravo Sur 264  esq. Juan Antonio de la Fuente,Centro Histórico,25000,844 410 72 51,http://www.museopresidentes.mx,,visitasguiadas@museopresidentes.org.mx ,,25.41985,-100.99991,5,30,1,Coahuila de Zaragoza,Saltillo,Saltillo,http://sic.gob.mx/ficha.php?table=museo&table_id=1632,2022-08-11T06:24:24-05:00
65a75f99df46a6e2e49c8946,1466,Historia,Museo de la Revolución Mexicana,2010-10-25,Secretaría de Cultura de Coahuila,público,Hidalgo Sur 167,Centro,25000,(844) 410 47 94,,,patrimoniocultural2013@hotmail.com,,25.42039,-101.00053,5,30,1,Coahuila de Zaragoza,Saltillo,Saltillo,http://sic.gob.mx/ficha.php?table=museo&table_id=1466,2019-11-20T05:20:17-06:00
65a75f99df46a6e2e49c8947,2307,TND,Museo Maleficis Caza de Brujas,NA,"Complejo Museográfico Cultura y Tradiciones en Movimiento/Amigos del Museo de las Catrinas, A.C.",Privado,Allende Sur 548,Centro,25000,844 100 9546 ,,,museodelacatrina@hotmail.com; maleficiscazadebrujas@outlook.com,,25.41757,-101.00252,5,30,1,Coahuila de Zaragoza,Saltillo,Saltillo,http://sic.gob.mx/ficha.php?table=museo&table_id=2307,2023-01-20T06:47:25-06:00
65a75f99df46a6e2e49c8948,1628,Arte,Recinto del Patrimonio Cultural Universitario,2007-10-26,Universidad Autónoma de Coahuila,comodato,Hidalgo Norte 211,Centro Histórico,25000,844 410 97 05,https://viveloensaltillo.com/museos/recinto-del-patrimonio-cultural-universitario/,,recintouadec@hotmail.com,,25.42225,-101.00009,5,30,1,Coahuila de Zaragoza,Saltillo,Saltillo,http://sic.gob.mx/ficha.php?table=museo&table_id=1628,2022-08-11T06:15:38-05:00
65a75f99df46a6e2e49c8949,1235,Historia,Museo Madero. Centenario de la Revolución,2008-09-08,Secretaría de Cultura de Coahuila,comodato,Av. Hidalgo s/n,Centro,27800,872 772 83 52,https://www.sanpedrodelascolonias.com/museomadero,,museomadero@hotmail.com,,25.75876,-102.98129,5,33,1,Coahuila de Zaragoza,San Pedro,San Pedro,http://sic.gob.mx/ficha.php?table=museo&table_id=1235,2022-08-11T06:07:32-05:00
65a75f99df46a6e2e49c894a,955,Historia,Museo del Ferrocarril,1998-11-07,Ayuntamiento de Torreón,público,Blvd. Revolución 1275 Pte.,Antigua Aceitera,27000,871 712 23 12,,http://www.mexicodesconocido.com.mx/museo-del-ferrocarril-en-la-ciudad-de-torreon-coahuila.html,museoferrocarriltorreon@gmail.com,,25.53521,-103.46166,5,35,1,Coahuila de Zaragoza,Torreón,Torreón,http://sic.gob.mx/ficha.php?table=museo&table_id=955,2020-09-24T06:34:00-05:00
65a75f99df46a6e2e49c894b,1322,Ciencia y tecnología,Museo del Algodón,2008-10-23,Ayuntamiento de Torreón,público,Av. Juárez 1760,Centro,27000,871 716 3679,,https://www.facebook.com/MuseoDelAlgodon/,museodelalgodon@hotmail.com,,25.53688,-103.46818,5,35,1,Coahuila de Zaragoza,Torreón,Torreón,http://sic.gob.mx/ficha.php?table=museo&table_id=1322,2020-09-24T06:57:36-05:00
65a75f99df46a6e2e49c894c,1277,Historia,Museo de la Revolución de Torreón,2007-10-02,Secretaría de Cultura de Coahuila,público,Av. Lerdo de Tejada 1029,Centro,27000,(871) 722 69 22,,http://www.sedeturcoahuila.gob.mx/inicio/?p=241,mdrvisitas@gmail.com,,25.555,-103.43698,5,35,1,Coahuila de Zaragoza,Torreón,Torreón,http://sic.gob.mx/ficha.php?table=museo&table_id=1277,2019-09-18T05:40:46-05:00
65a75f99df46a6e2e49c894d,1910,Antropología,Museo Comunitario Los Laguneros,1965-01-01,"Unión Nacional de Museos Comunitarios y Ecomuseos, A.C.",privado,Av. Santa María 737 Pte.,Centro,32880,(871) 712 65 48,,,javiervargasoto@hotmail.com.mx,,,,5,35,1,Coahuila de Zaragoza,Torreón,Torreón,http://sic.gob.mx/ficha.php?table=museo&table_id=1910,2017-03-10T12:35:29-06:00
65a75f99df46a6e2e49c894e,959,Historia,Museo Histórico de la Ciudad. Casa del Cerro,1994-02-11,Ayuntamiento de Torreón,público,Calz. Industria s/n,Col. Durangueña,27000,871 716 50 72,,,museocasadelcerro.direccion@gmail.com,museocasadelcerro,25.53422,-103.46814,5,35,1,Coahuila de Zaragoza,Torreón,Torreón,http://sic.gob.mx/ficha.php?table=museo&table_id=959,2022-10-10T05:10:31-05:00
65a75f99df46a6e2e49c894f,824,Arqueología,Museo Regional de la Laguna,1976-11-22,Secretaría de Cultura/INAH,público,Av. Juárez s/n int. Bosque Venustiano Carranza,Centro,27000,871 713 9545 ext. 148204,,,gretel_delapena@inah.gob.mx,,25.53897,-103.43262,5,35,1,Coahuila de Zaragoza,Torreón,Torreón,http://sic.gob.mx/ficha.php?table=museo&table_id=824,2023-12-14T04:14:44-06:00
65a75f99df46a6e2e49c8950,1156,Ciencia y tecnología,Museo de los Metales,2007-09-25,Grupo Industrial Peñoles,privado,Blvd. Laguna 3200 Pte.,Col. Metalúrgica,27370,871 729 55 00 ext. 7030,,,museo_metales@penoles.com.mx,,25.52265,-103.4445,5,35,1,Coahuila de Zaragoza,Torreón,Torreón,http://sic.gob.mx/ficha.php?table=museo&table_id=1156,2023-03-29T13:05:08-06:00
65a75f99df46a6e2e49c8951,188,Historia,Museo de la Moneda,2005-11-11,Ayuntamiento de Torreón,público,Av. Morelos 1217 Pte.,Centro Histórico,27000,871 500 71 11,,, museodelamoneda.imce@gmail.com,,25.5393,-103.46222,5,35,1,Coahuila de Zaragoza,Torreón,Torreón,http://sic.gob.mx/ficha.php?table=museo&table_id=188,2022-08-25T05:02:24-05:00
65a75f99df46a6e2e49c8952,189,Arte,Museo Arocena,2006-08-27,"Centro Cultural Arocena Laguna, A.C.",privado,Av. Juárez 1249,Centro,27000,871  712 02 33,http://www.museoarocena.com/,,info@museoarocena.com,museoarocena,25.53781,-103.4621,5,35,1,Coahuila de Zaragoza,Torreón,Torreón,http://sic.gob.mx/ficha.php?table=museo&table_id=189,2023-05-24T06:13:52-06:00
65a75f99df46a6e2e49c8953,956,Ciencia y tecnología,Museo Paleontológico de la Laguna,1995-12-01,"Península de Coahuila, A.C.",privado,Av. Juárez 580 Pte.,Centro,27000,871  240 86 26,https://www.museopal.org.mx/,,gquiroz@museopal.org.mx,,25.53812,-103.45545,5,35,1,Coahuila de Zaragoza,Torreón,Torreón,http://sic.gob.mx/ficha.php?table=museo&table_id=956,2023-07-20T04:45:42-06:00
65a75f99df46a6e2e49c8954,1671,Ciencia y tecnología,Planetarium Torreón,2014-02-01,"Planetario Torreón, A.C.",privado,"Blvd. Juan Pablo II s/n, Bosque Urbano (Antiguo Parque Las Etnias)",Las Etnias,27058,871 732 29 66,http://www.planetariumtorreon.com,https://www.facebook.com/pages/Planetarium-Torre%C3%B3n/301042529952343?fref=nf,carmen@planetariumtorreon.com,,25.55047,-103.39067,5,35,1,Coahuila de Zaragoza,Torreón,Torreón,http://sic.gob.mx/ficha.php?table=museo&table_id=1671,2023-05-17T08:41:50-06:00
65a75f99df46a6e2e49c8955,1835,Arte,Museo de Arte Sacro de la parroquia de Santiago Apostol,NA,,TPND,Venustiano Carranza s/n,Centro,27480,(671) 764 0221,,,,,,,5,36,1,Coahuila de Zaragoza,Viesca,Viesca,http://sic.gob.mx/ficha.php?table=museo&table_id=1835,2017-03-10T12:47:05-06:00
65a75f99df46a6e2e49c8956,1827,Historia,Fuerte de San Pedro de Gigedo,2007-01-01,Particular,privado,Jiménez Norte 1202 Nte.,Centro,26600,(662) 100 81 95,,https://www.facebook.com/FuerteDeSanPedroDeGigedo/,casafuerte1749@hotmail.com,,28.23153,-100.73398,5,37,1,Coahuila de Zaragoza,Villa Unión,Villa Unión,http://sic.gob.mx/ficha.php?table=museo&table_id=1827,2018-11-15T06:28:29-06:00
65a75f99df46a6e2e49c8957,1678,Historia,Museo del Centro Cultural Ernesto Julio Teissier Flores,2005-11-24,Ayuntamiento de Zaragoza,TPND,Venustiano Carranza 304,Centro,26450,(862) 626 10 39,,,ccejulioteissier@hotmail.com,,28.49421,-100.92317,5,38,1,Coahuila de Zaragoza,Zaragoza,Zaragoza,http://sic.gob.mx/ficha.php?table=museo&table_id=1678,2021-01-12T10:23:14-06:00
65a75f99df46a6e2e49c8958,534,Ciencia y tecnología,Museo de la Sal,2022-11-01,"Sociedad Cooperativa de Salineros de Colima, S.C.L.",Privado,Benito Juárez s/n,Centro,28350,313 326 40 08,,,salinerosdecolima@hotmail.com,,18.92104,-104.06908,6,1,9,Colima,Armería,Cuyutlán,http://sic.gob.mx/ficha.php?table=museo&table_id=534,2023-05-11T02:55:43-06:00
65a75f99df46a6e2e49c8959,1542,Historia,Museo Palacio de Colima,2020-11-06,Secretaría de Cultura del Gobierno del Estado de Colima,TPND,Reforma s/n,Centro,28970,312 308 05 20,,http://culturacolima.gob.mx/v2/palacio-de-gobierno/,lauraorozco2001@yahoo.com.mx,,19.24267,-103.72871,6,2,1,Colima,Colima,Colima,http://sic.gob.mx/ficha.php?table=museo&table_id=1542,2023-04-26T08:10:06-06:00
65a75f99df46a6e2e49c895a,962,Historia,Museo Regional de Historia de Colima,1988-11-01,Secretaría de Cultura/INAH,público, Reforma y Calle 16 de Septiembre,Centro,28000,312 312 92 28,,,museocolima@hotmail.com; fernando_rodriguez@inah.gob.mx,,19.24279,-103.72868,6,2,1,Colima,Colima,Colima,http://sic.gob.mx/ficha.php?table=museo&table_id=962,2023-12-14T04:16:50-06:00
65a75f99df46a6e2e49c895b,1492,Arte,Museo Fernando del Paso,2011-05-28,Universidad de Colima,privado,Calle 27 de Septiembre 119,Centro,28000,312 316 10 00,https://www.facebook.com/FernandoDelPasoMUSEO?fref=ts,http://www.ucol.mx/alumnos/museos.htm,karminabenavides@hotmail.com,,19.24264,-103.72332,6,2,1,Colima,Colima,Colima,http://sic.gob.mx/ficha.php?table=museo&table_id=1492,2020-06-11T11:04:17-05:00
65a75f99df46a6e2e49c895c,252,Arqueología,Museo de las Culturas de Occidente María Ahumada de Gómez,1980-12-01,Secretaría de Cultura del Gobierno del Estado de Colima/Casa de Cultura,público,Calz. Galván Nte. s/n,Centro,28000,"(312) 313 06 08,  330 71 92",,http://culturacolima.gob.mx/v2/ma-ahumada-de-gomez/,contacto@colima.gob.mx,,19.24297,-103.71439,6,2,1,Colima,Colima,Colima,http://sic.gob.mx/ficha.php?table=museo&table_id=252,2022-03-14T05:30:30-06:00
65a75f99df46a6e2e49c895d,961,Arte,Pinacoteca Universitaria,1996-01-01,Universidad de Colima/Dirección General de Patrimonio Cultural,público,Vicente Guerrero 35,Centro,28000,312 314 33 06,https://portal.ucol.mx/dgpc/Pinacoteca-Universitaria.htm,,pinacoteca@ucol.mx,,19.24491,-103.72624,6,2,1,Colima,Colima,Colima,http://sic.gob.mx/ficha.php?table=museo&table_id=961,2022-08-11T06:38:43-05:00
65a75f99df46a6e2e49c895e,81,Arte,Museo Universitario de Artes Populares María Teresa Pomar,1981-09-19,Universidad de Colima,público,Manuel Gallardo Zamora 99,Centro,28000,312 312 22 28,https://portal.ucol.mx/dgpc//Artes-Populares.htm,, muap@ucol.mx,,19.24862,-103.72209,6,2,1,Colima,Colima,Colima,http://sic.gob.mx/ficha.php?table=museo&table_id=81,2022-08-11T06:35:38-05:00
65a75f99df46a6e2e49c895f,25,Arte,Museo de la Gráfica de Occidente José Luis Cuevas ,2001-01-01,Secretaría de Cultura del Gobierno del Estado de Colima/Taller de Formación y Producción de Artes La Parota,público,kM. 5.5 Carr. Villa Alvarez Comala,Centro,28450,(312) 313 99 68,,,tallerlaparotaacervo@gmail.com,,,,6,3,1,Colima,Comala,Comala,http://sic.gob.mx/ficha.php?table=museo&table_id=25,2017-05-31T09:36:35-05:00
65a75f99df46a6e2e49c8960,404,Arte,Museo Nacional de la Escultura Sebastián,2005-08-01,Secretaría de Cultura del Gobierno del Estado de Colima/Centro Estatal de las Artes,público, Km 5.5 de la Carr. Villa de Álvarez-Comala,,28450,(312) 313 99 68,,http://culturacolima.gob.mx/v2/sebastian/,info@culturacolima.gob.mx,,19.31624,-103.75967,6,3,1,Colima,Comala,Comala,http://sic.gob.mx/ficha.php?table=museo&table_id=404,2018-11-20T06:11:29-06:00
65a75f99df46a6e2e49c8961,1067,Arqueología,Museo Universitario Alejandro Rangel (MUARH),1996-10-16,Universidad de Colima,público,Ex Hacienda de Nogueras s/n,Col. Nogueras,28454,(312) 315 60 28,,,museoalejandrorangelhidalgo@gmail.com,,19.32344,-103.73995,6,3,23,Colima,Comala,Nogueras,http://sic.gob.mx/ficha.php?table=museo&table_id=1067,2020-10-12T07:15:22-05:00
65a75f99df46a6e2e49c8962,1545,Arte,Museo Comunitario de Coquimatlán Ramón Navarro Osorio,NA,Secretaría de Cultura del Gobierno del Estado de Colima,comunitario,Independencia 74,Centro,28400,(312) 323 04 75,,http://culturacolima.gob.mx/v2/ramon-navarro-osorio/,yadira_nokia@hotmail.com,,19.2023,-103.81122,6,4,1,Colima,Coquimatlán,Coquimatlán,http://sic.gob.mx/ficha.php?table=museo&table_id=1545,2017-03-10T12:29:11-06:00
65a75f99df46a6e2e49c8963,1940,TND,Sala Museográfica del Petroglifo Profr. Antonio Magaña Tejeda,NA,Ayuntamiento de Cuauhtémoc/Dirección de Cultura y Deporte de Cuauhtémoc,TPND,Libertad 9,Centro,28500,312 328 08 08,,,culturaydeporte@cuauhtemoc-col.gob.mx,,,,6,5,1,Colima,Cuauhtémoc,Cuauhtémoc,http://sic.gob.mx/ficha.php?table=museo&table_id=1940,2021-02-08T16:17:21-06:00
65a75f99df46a6e2e49c8964,1456,Historia,Museo de la Caña y del Azúcar ,NA,Secretaría de Cultura del Gobierno del Estado de Colima,comunitario,Av. 20 de Noviembre s/n,Centro,28510,(312) 395 20 67,,http://culturacolima.gob.mx/v2/museo-de-la-cana-y-el-azucar/,,,19.38449,-103.57496,6,5,18,Colima,Cuauhtémoc,Quesería,http://sic.gob.mx/ficha.php?table=museo&table_id=1456,2018-02-01T12:59:17-06:00
65a75f99df46a6e2e49c8965,1062,Arqueología,Museo Comunitario de Ixtlahuacán,1995-05-17,Ayuntamiento de Ixtlahucán,público,México 2 esq. Niño Artillero,Centro,28700,"313 324 90 72, 313 324 90 32",,http://www.ixtlahuacan.com/museo.htm,dmec_ixtlahuacan@outlook.com,,18.99778,-103.73583,6,6,1,Colima,Ixtlahuacán,Ixtlahuacán,http://sic.gob.mx/ficha.php?table=museo&table_id=1062,2021-05-05T08:28:04-05:00
65a75f99df46a6e2e49c8966,1063,Historia,Museo Comunitario de Minatitlán Porfirio Gaitán Núñez,1999-10-17,Dirección de Cultura del Ayuntamiento de Minatitlán,público,Portal Zaragoza 3,Centro,28750,(314) 336 08 26,,http://culturacolima.gob.mx/v2/minatitlan/,omarmichelmpm@gmail.com,,,,6,8,1,Colima,Minatitlán,Minatitlán,http://sic.gob.mx/ficha.php?table=museo&table_id=1063,2017-03-10T12:30:22-06:00
65a75f99df46a6e2e49c8967,861,Arqueología,Museo Arqueológico Caxitlán,2003-07-25,Secretaría de Cultura del Gobierno del Estado de Colima,público,Av. Insurgentes 1000,Col. Tepeyac,28110,(313) 324 28 47,,http://culturacolima.gob.mx/v2/caxitlan/, bomborucha1@gmail.com; bomborucha_17hotmail.com,,18.9262,-103.88423,6,9,1,Colima,Tecomán,Tecomán,http://sic.gob.mx/ficha.php?table=museo&table_id=861,2017-03-10T12:20:40-06:00
65a75f99df46a6e2e49c8968,1553,Especializado,Museo Charro Taurino,2003-03-01,"Secretaría de Cultura de Colima, Casa de la Cultura de Villa de Álvarez",público,Av. Enrique Corona Morfín s/n,,28970,(312) 316 33 08,,,culturavdea@hotmail.com,,,,6,10,1,Colima,Villa de Álvarez,Ciudad de Villa de Álvarez,http://sic.gob.mx/ficha.php?table=museo&table_id=1553,2017-03-10T12:26:56-06:00
65a75f99df46a6e2e49c8969,1501,Historia,Museo del Ferrocarril,2005-01-01,Ayuntamiento de Arriaga,público,2a. Av. Oriente,Centro,30450,(966) 662 27 78,,,acuario_8570@hotmail.com; casamuseo@live.com.mx,,16.23509,-93.89906,7,9,1,Chiapas,Arriaga,Arriaga,http://sic.gob.mx/ficha.php?table=museo&table_id=1501,2019-08-22T06:17:49-05:00
65a75f99df46a6e2e49c896a,132,Historia,Casa Museo Dr. Belisario Domínguez Palencia,1985-04-25,Consejo Estatal para las Culturas y las Artes de Chiapas,público,Av. Dr. Belisario Domínguez Sur núm. 35,Centro,30000,963 632 13 00,,,casamuseobelisario@conecultachiapas.gob.mx,,16.25118,-92.13543,7,19,1,Chiapas,Comitán de Domínguez,Comitán de Domínguez,http://sic.gob.mx/ficha.php?table=museo&table_id=132,2023-12-12T05:50:30-06:00
65a75f99df46a6e2e49c896b,130,Arte,Museo de Arte Hermila Domínguez de Castellanos,1988-08-28,Consejo Estatal para la Cultura y las Artes de Chiapas,público,Av. Central Sur 35,Centro,30000,963 632 20 82,,, museohermila@conecultachiapas.gob.mx,MuseoHermila,16.25201,-92.13229,7,19,1,Chiapas,Comitán de Domínguez,Comitán de Domínguez,http://sic.gob.mx/ficha.php?table=museo&table_id=130,2023-05-17T05:21:12-06:00
65a75f99df46a6e2e49c896c,2034,TND,Museo Rosario Castellanos,2017-11-01,,TPND,3a. Calle Sur Oriente núm. 8,Centro Histórico,30000,(963)  632 80 51,,,,,16.25127,-92.13357,7,19,1,Chiapas,Comitán de Domínguez,Comitán de Domínguez,http://sic.gob.mx/ficha.php?table=museo&table_id=2034,2019-08-22T07:02:59-05:00
65a75f99df46a6e2e49c896d,940,Arqueología,Museo Arqueológico de Comitán,1993-08-28,Secretaría de Cultura/INAH,público,1a. Calle Sur Ote. esq. 2a. Av. Oriente Sur s/n,Centro,30000,963  632 57 60,https://www.inah.gob.mx/museos/museo-arqueologico-de-comitan,,natividad_figueroa@inah.gob.mx; jalejandro_perez@inah.gob.mx,INAH_CHIAPAS,16.25276,-92.13447,7,19,1,Chiapas,Comitán de Domínguez,Comitán de Domínguez,http://sic.gob.mx/ficha.php?table=museo&table_id=940,2023-12-12T05:53:12-06:00
65a75f99df46a6e2e49c896e,1750,Arqueología,Zona Arqueológica de Tenam Puente (temporalmente cerrado),2008-12-01,Secretaría de Cultura/INAH,público,Carr. Comitán Trinitaria ,Col. Francisco Sarabia,30001,963 632 5760,,,"direccion.chis@inah.gob.mx, trinidad_figueroa@inah.gob.mx",,16.14152,-92.1049,7,19,53,Chiapas,Comitán de Domínguez,Francisco Sarabia,http://sic.gob.mx/ficha.php?table=museo&table_id=1750,2023-12-12T06:31:18-06:00
65a75f99df46a6e2e49c896f,655,Antropología,Museo Comunitario Raíces de mi Pueblo,1994-10-30,"Raíces de mi Pueblo Chyks Kungny, A.C.",privado,1a Poniente Sur s/n,Centro,29620,(968) 661 02 89,,,elbambu50@gmail.com,,,,7,21,1,Chiapas,Copainalá,Copainalá,http://sic.gob.mx/ficha.php?table=museo&table_id=655,2017-03-10T12:36:37-06:00
65a75f99df46a6e2e49c8970,80,Arte,Casa Museo de la Marimba Nandayapa,1917-01-01,Particular,privado,Av. Independencia 36,Barrio de San Miguel,29160,(961) 616 0012,,,cnandayapa@yahoo.com,,16.7046,-93.01582,7,27,1,Chiapas,Chiapa de Corzo,Chiapa de Corzo,http://sic.gob.mx/ficha.php?table=museo&table_id=80,2019-10-31T07:26:06-06:00
65a75f99df46a6e2e49c8971,860,Arte,Museo de la Laca Armando Duvalier,1952-01-01,Consejo Estatal para la Cultura y las Artes de Chiapas /Centro Cultural ex Convento Santo Domingo,comodato,Av. Mexicanidad Chiapaneca 10,Centro,29160,961 616 00 55,,,exconvento@coneculta.gob.mx,,16.70696,-93.01827,7,27,1,Chiapas,Chiapa de Corzo,Chiapa de Corzo,http://sic.gob.mx/ficha.php?table=museo&table_id=860,2022-10-12T05:59:30-05:00
65a75f99df46a6e2e49c8972,859,Arte,Museo Franco Lázaro Gómez,1994-11-01,Consejo Estatal para la Cultura y las Artes de Chiapas/Centro Cultural Ex Convento de Santo Domingo,comodato,Av. Mexicanidad Chiapaneca 10,Centro,29160,(961) 616 00 55,,,exconvento@conecultachiapas.gob.mx,,16.70877,-93.01561,7,27,1,Chiapas,Chiapa de Corzo,Chiapa de Corzo,http://sic.gob.mx/ficha.php?table=museo&table_id=859,2019-08-22T06:40:49-05:00
65a75f99df46a6e2e49c8973,92,Arte,Museo Comunitario El Parachico,NA,Comité Pro-Museo,privado,Barrio de San Antonio Abad,,,,,,,,,,7,27,1,Chiapas,Chiapa de Corzo,Chiapa de Corzo,http://sic.gob.mx/ficha.php?table=museo&table_id=92,2021-06-21T06:39:43-05:00
65a75f99df46a6e2e49c8974,69,Historia,Casa Museo Ángel Albino Corzo,2001-09-01,Patronato de la Casa Museo Ángel Albino Corzo,público,Av. Ignacio Zaragoza s/n,Centro,29160,961 616 00 12,,,casamuseoangelalbinocorzo2023@gmail.com,,16.70935,-93.01724,7,27,1,Chiapas,Chiapa de Corzo,Chiapa de Corzo,http://sic.gob.mx/ficha.php?table=museo&table_id=69,2023-12-12T05:49:56-06:00
65a75f99df46a6e2e49c8975,888,TND,Museo Comunitario Frontera Corozal,1976-12-31,Consejo Estatal para las Culturas y las Artes de Chiapas,público,Domicilio conocido s/n,Centro,29950,,,,informacion@conecultachiapas.gob.mx,,16.90722,-92.09611,7,59,1,Chiapas,Ocosingo,Ocosingo,http://sic.gob.mx/ficha.php?table=museo&table_id=888,2017-11-28T13:17:33-06:00
65a75f99df46a6e2e49c8976,938,Arqueología,Museo de Sitio de Toniná,2000-07-01,Secretaría de Cultura/INAH,público,Carr. Ocosingo-Toniná km 10,,29950,919 110 34 77,https://www.inah.gob.mx/museos/museo-de-sitio-de-tonina,,museodesitiotonia@hotmail.com; juan_santiz@inah.gob.mx,,16.91688,-91.9649,7,59,1,Chiapas,Ocosingo,Ocosingo,http://sic.gob.mx/ficha.php?table=museo&table_id=938,2023-12-12T06:01:31-06:00
65a75f99df46a6e2e49c8977,641,Historia,Museo Zoque Regional Javepacuay,2001-12-28,Gobierno de Chiapas/Ayuntamiento de Ocozocoautla de Espinosa,público,7ª Poniente,Barrio San Juan,29140,(968) 688 30 58,,https://www.turismoenchiapas.com/portal/art3428_Museo_Zoque_Regional_Javepacuay.html,museozoque@gmail.com; museo_zoque@hotmail.com,,16.76103,-93.38051,7,61,1,Chiapas,Ocozocoautla de Espinosa,Ocozocoautla de Espinosa,http://sic.gob.mx/ficha.php?table=museo&table_id=641,2019-10-11T05:41:25-05:00
65a75f99df46a6e2e49c8978,939,Arqueología,"Museo de Sitio de Palenque, Alberto Ruz L´Huillier",1994-12-01,Secretaría de Cultura/INAH,público,Carr. Ramal Palenque-Zona Arqueológica Km 6.5,,29960,916 668 01 41,,,museodesitiopalenque@inah.gob.mx; musipa.alberto.ruz@gmail.com,,17.48837,-92.04196,7,65,1,Chiapas,Palenque,Palenque,http://sic.gob.mx/ficha.php?table=museo&table_id=939,2023-12-12T06:00:32-06:00
65a75f99df46a6e2e49c8979,575,TND,Museo Comunitario de Pijijiapan ,NA,Ayuntamiento de Pijijiapan,público,3a. Av. Norte s/n,Centro,30540 ,(918) 645 14 38,,,,,,,7,69,1,Chiapas,Pijijiapan,Pijijiapan,http://sic.gob.mx/ficha.php?table=museo&table_id=575,2017-03-10T12:30:59-06:00
65a75f99df46a6e2e49c897a,1482,Historia,Museo de Historia y Curiosidades de San Cristóbal,2010-03-31,Fundación Miguel Muñoz,privado,Diego de Mazariegos 43,Barrio de la Merced,29240,967 678 87 28,,,contacto@miguelmunoz.org,,16.73644,-92.64164,7,78,1,Chiapas,San Cristóbal de las Casas,San Cristóbal de las Casas,http://sic.gob.mx/ficha.php?table=museo&table_id=1482,2022-10-12T05:32:08-05:00
65a75f99df46a6e2e49c897b,112,Antropología,Museo Na Bolom,1950-04-16,"Asociación Cultural Na Bolom, A.C.",privado,Av. Vicente Guerrero 33,Barrio El Cerrillo,29220,"967 678 14 18, 967 678 55 86",http://www.nabolom.org/,,ivantorres@nabolom.org,,16.74167,-92.62992,7,78,1,Chiapas,San Cristóbal de las Casas,San Cristóbal de las Casas,http://sic.gob.mx/ficha.php?table=museo&table_id=112,2023-06-06T03:59:59-06:00
65a75f99df46a6e2e49c897c,1097,Arte,Museo Mesoamericano del Jade,2001-10-14,Casa del Jade de México,privado,Av. 16 de Septiembre núm. 16,Centro,29200,(967) 678 11 21,http://www.eljade.com/,,info@eljade.com,,16.73814,-92.63883,7,78,1,Chiapas,San Cristóbal de las Casas,San Cristóbal de las Casas,http://sic.gob.mx/ficha.php?table=museo&table_id=1097,2021-01-19T08:34:10-06:00
65a75f99df46a6e2e49c897d,1960,TND,Museo de Metalistería. Las formas y los colores del hierro,NA,Particular,TPND,Av. La Jardinería 12,Col. Jardines del Valle,29286,(967) 678 6631,,,museodemetalisteria@hotmail.com,,16.72103,-92.64541,7,78,1,Chiapas,San Cristóbal de las Casas,San Cristóbal de las Casas,http://sic.gob.mx/ficha.php?table=museo&table_id=1960,2017-11-28T13:06:27-06:00
65a75f99df46a6e2e49c897e,117,Arte,Museo de Culturas Populares de Chiapas,2000-02-07,Secretaría de Cultura/Dirección  General de Culturas Populares,comodato,Av. Diego de Mazariegos 37,Barrio de La Merced,29240,967 674 72 27,,,museocpch@hotmail.com,,16.7365,-92.64127,7,78,1,Chiapas,San Cristóbal de las Casas,San Cristóbal de las Casas,http://sic.gob.mx/ficha.php?table=museo&table_id=117,2022-10-12T05:26:32-05:00
65a75f99df46a6e2e49c897f,67,Antropología,Museo de la Medicina Maya,1997-12-31,Organización de Médicos Indígenas del Estado de Chiapas (OMIECH),privado,Av. Salomón González Blanco 10,Col. Morelos,29215,967 678 54 38,,,omiech@prodigy.net.mx,,16.74984,-92.63864,7,78,1,Chiapas,San Cristóbal de las Casas,San Cristóbal de las Casas,http://sic.gob.mx/ficha.php?table=museo&table_id=67,2022-08-23T04:33:47-05:00
65a75f99df46a6e2e49c8980,108,Arte,Museo del Ámbar de Chiapas,2000-12-04,"Patronato Pro-Reconstrucción del Ex-Convento de La Merced, A.C.",comodato,Diego de Mazariegos s/n,Barrio de la Merced,29240,967 678 97 16,,,info@museodelambar.org.mx,MuseoDelAmbar,16.73576,-92.6422,7,78,1,Chiapas,San Cristóbal de las Casas,San Cristóbal de las Casas,http://sic.gob.mx/ficha.php?table=museo&table_id=108,2023-12-12T06:15:24-06:00
65a75f99df46a6e2e49c8981,1541,Especializado,Kakaw Museo del Cacao y Chocolatería Cultural,2010-12-23,,privado,Av. 16 de septiembre 16,Centro,29200,967 631 7995,,,visita@kakawmcc@gmail.com; kakawmcc@gmail.com,,16.73839,-92.6396,7,78,1,Chiapas,San Cristóbal de las Casas,San Cristóbal de las Casas,http://sic.gob.mx/ficha.php?table=museo&table_id=1541,2022-03-10T07:54:33-06:00
65a75f99df46a6e2e49c8982,1758,Arte,Centro de Textiles del Mundo Maya,2012-10-31,"Centro de Textiles del Mundo Maya, A.C.",comodato,Av. 20 de Noviembre s/n,Barrio El Cerrillo,29220,967 631 30 94,http://www.fomentoculturalbanamex.org/ctmm/,,administracion@centrotextilesmayas.org,,16.74164,-92.63747,7,78,1,Chiapas,San Cristóbal de las Casas,San Cristóbal de las Casas,http://sic.gob.mx/ficha.php?table=museo&table_id=1758,2022-10-12T04:37:04-05:00
65a75f99df46a6e2e49c8983,123,Especializado,Museo del Café,1998-04-01,Coordinadora de Pequeños Productores de Café (COOPCAFE),privado,María Adelina Flores 10,Centro,29220,(967) 678 78 76,,,cafemuseoadmon@gmail.com,,16.7383,-92.63592,7,78,1,Chiapas,San Cristóbal de las Casas,San Cristóbal de las Casas,http://sic.gob.mx/ficha.php?table=museo&table_id=123,2021-02-19T07:02:58-06:00
65a75f99df46a6e2e49c8984,2056,TND,Museo San Cristóbal de las Casas (MUSAC),2016-01-06,Gobierno del Estado/Consejo Estatal para las Culturas y las Artes de Chiapas,público,Diego de Mazariegos s/n,Centro Histórico,29200, 967 679 36 81 ,,,musac@conecultachiapas.gob.mx; direccionmusacconeculta@gmail.com,,16.73702,-92.6375,7,78,1,Chiapas,San Cristóbal de las Casas,San Cristóbal de las Casas,http://sic.gob.mx/ficha.php?table=museo&table_id=2056,2023-05-26T07:47:03-06:00
65a75f99df46a6e2e49c8985,1815,Antropología,Museo Jtatik Samuel,2015-01-27,"Centro Comunitario El Caminante, A.C.",privado,Carret. a Chamula km. 1.5,Barrio San Martin,29247,967 112 53 53,https://www.jtatik.org/museo,,museo@jtatik.org,,16.75123,-92.66543,7,78,1,Chiapas,San Cristóbal de las Casas,San Cristóbal de las Casas,http://sic.gob.mx/ficha.php?table=museo&table_id=1815,2022-11-22T07:26:00-06:00
65a75f99df46a6e2e49c8986,933,Arqueología,Museo de los Altos de Chiapas Ex Convento de Santo Domingo de Guzmán,1988-11-01,Secretaría de Cultura/INAH,público,Calz. Lázaro Cárdenas s/n,Barrio del Cerrillo,29220,967 678 28 06,http://www.inah.gob.mx/es/red-de-museos/270-museo-de-los-altos-de-chiapas-exconvento-santo-domingo-de-guzman,,raulduron@hotmail.com; mg.lopez@live.com.mx,,16.74187,-92.63747,7,78,1,Chiapas,San Cristóbal de las Casas,San Cristóbal de las Casas,http://sic.gob.mx/ficha.php?table=museo&table_id=933,2023-12-13T07:52:47-06:00
65a75f99df46a6e2e49c8987,41,Antropología,Museo de Trajes Regionales de Sergio Castro,1970-01-01,"Yokchij Sergio Arturo Castro Martínez, A.C.",privado,Guadalupe Victoria 38,Barrio de la Merced,29240,(967) 678 42 89,http://yokchij.org,,sergiocastrosc@gmail.com,,16.73691,-92.64157,7,78,1,Chiapas,San Cristóbal de las Casas,San Cristóbal de las Casas,http://sic.gob.mx/ficha.php?table=museo&table_id=41,2018-10-11T06:30:01-05:00
65a75f99df46a6e2e49c8988,941,Arqueología,Museo Arqueológico del Soconusco (Cerrado por remodelación),1988-02-01,Secretaría de Cultura/INAH,público,Octava Av. Norte 24,Centro,30700,962  626 41 73,,, museosoconusco@hotmail.com,,14.91022,-92.26539,7,89,1,Chiapas,Tapachula,Tapachula de Córdova y Ordóñez,http://sic.gob.mx/ficha.php?table=museo&table_id=941,2023-12-13T07:53:36-06:00
65a75f99df46a6e2e49c8989,2071,TND,Museo de Tapachula (MUTAP),2019-08-06,Ayuntamiento de Tapachula,,8va Avenida Nte. 22,Centro,30830,,,,,,14.91021,-92.26543,7,89,806,Chiapas,Tapachula,Tapachula [Algodonera],http://sic.gob.mx/ficha.php?table=museo&table_id=2071,2023-05-26T06:46:50-06:00
65a75f99df46a6e2e49c898a,587,Antropología,Museo Comunitario Tøs Ngumguy (Nuestro pueblo),2002-04-01,,público,Carr. Malpaso s/n,Barrio Costa de Oro,29610,(968) 653 31 11  ,,,manuel_marin5@hotmail.com,,,,7,92,1,Chiapas,Tecpatán,Tecpatán,http://sic.gob.mx/ficha.php?table=museo&table_id=587,2017-03-10T12:37:28-06:00
65a75f99df46a6e2e49c898b,1452,Historia,Museo Tziscao,2010-07-20,Parque Natural Ecoturístico Mame de Tziscao S.C. de R.L. de C.V.,comunitario,"Carret. La Trinitaria-Palenque Km. 414, ","Lago Tziscao, Ejido Tziscao ",30160 ,50257802775,https://ecotziscao.com/2020/08/19/museo-cultural/,,ecotziscaochiapas@hotmail.com,,16.08756,-91.66655,7,99,1,Chiapas,La Trinitaria,La Trinitaria,http://sic.gob.mx/ficha.php?table=museo&table_id=1452,2021-02-22T03:14:23-06:00
65a75f99df46a6e2e49c898c,2077,TND,Museo de sitio de la Zona Arqueológica de Lagartero,NA,Secretaría de Cultura/INAH,,"Ejido Cristóbal Colón km 11 + 400 (aprox. al ejido), Municipio de La Trinitaria, Chiapas. Acceso al camino desde el Km. 56.7 (aprox.) de la Carr. Panamericana de Comitán-Cd. Cuauhtémoc",,,961 612 83 60,,,guillen_12869@hotmail.com; rosa_guillen@inah.gob.mx,,15.82763,-91.88415,7,99,51,Chiapas,La Trinitaria,Cristóbal Colón (Lagos de Colón),http://sic.gob.mx/ficha.php?table=museo&table_id=2077,2023-10-17T07:05:30-06:00
65a75f99df46a6e2e49c898d,1147,Ciencia y tecnología,Museo Chiapas de Ciencia y Tecnología,2006-10-22,Consejo de Ciencia y Tecnología del Estado de Chiapas,público,Calz. Cerro Hueco 3000,Col. Cerro Hueco,29094,961 691 23 28,https://icti.chiapas.gob.mx/espacios/museo/,,much@icti.chiapas.gob.mx,,16.72246,-93.09212,7,101,1,Chiapas,Tuxtla Gutiérrez,Tuxtla Gutiérrez,http://sic.gob.mx/ficha.php?table=museo&table_id=1147,2023-05-17T05:11:24-06:00
65a75f99df46a6e2e49c898e,27,Ciencia y tecnología,Museo de Paleontología Eliseo Palacios Aguilera,2002-10-21,Secretaría de Medio Ambiente e Historia Natural/Dirección de Paleontología,público,"Calz. de los Hombres Ilustres s/n, Antiguo Parque Madero",Centro,29000,961 600 02 54,,,paleochis@hotmail.com,,16.75925,-93.10584,7,101,1,Chiapas,Tuxtla Gutiérrez,Tuxtla Gutiérrez,http://sic.gob.mx/ficha.php?table=museo&table_id=27,2022-10-12T07:32:54-05:00
65a75f99df46a6e2e49c898f,1777,Ciencia y tecnología,Planetario Tuxtla Jaime Sabines Gutiérrez ,2012-12-06,Consejo de Ciencia y Tecnología del Estado de Chiapas (COCYTECH),TPND,Av. Quinta Norte Oriente s/n ,Parque Madero,29043,961 611 06 62,https://www.icti.chiapas.gob.mx/,,planetario@cocytech.gob.mx; planetariotuxtlajaime@gmail.com,,16.76017,-93.10219,7,101,1,Chiapas,Tuxtla Gutiérrez,Tuxtla Gutiérrez,http://sic.gob.mx/ficha.php?table=museo&table_id=1777,2022-08-25T04:05:40-05:00
65a75f99df46a6e2e49c8990,66,Historia,Museo de la Ciudad Tuxtla Gutiérrez,1999-08-16,"Fundación Fernando Castañón Gamboa<br>Pro-Museo de la Ciudad de Tuxtla Gutiérrez, A.C.",comodato,Av. Central 288,Centro,29000,961 600 01 16,,,direccion@museodetuxtla.org; info@museodetuxtla.org,,16.75231,-93.16182,7,101,1,Chiapas,Tuxtla Gutiérrez,Tuxtla Gutiérrez,http://sic.gob.mx/ficha.php?table=museo&table_id=66,2023-12-12T05:55:08-06:00
65a75f99df46a6e2e49c8991,942,Historia,Museo Regional de Chiapas,1984-09-14,Secretaría de Cultura/INAH,público,Hombres Ilustres de la Revolución Mexicana s/n,Centro,29000,961 613 44 79 ,,,museoregionaldechiapas@hotmail.com; valente_molina@inah.gob.mx,,16.75964,-93.10662,7,101,1,Chiapas,Tuxtla Gutiérrez,Tuxtla Gutiérrez,http://sic.gob.mx/ficha.php?table=museo&table_id=942,2023-12-12T06:25:40-06:00
65a75f99df46a6e2e49c8992,1315,Arte,Museo de la Marimba,2006-03-14,Ayuntamiento de Tuxtla Gutiérrez,público,Av. Central y 9a. Poniente Norte 123,Centro,29000,(961) 111 39 80,,,museodelamarimba@outlook.com,,16.75501,-93.12404,7,101,1,Chiapas,Tuxtla Gutiérrez,Tuxtla Gutiérrez,http://sic.gob.mx/ficha.php?table=museo&table_id=1315,2019-10-31T07:18:11-06:00
65a75f99df46a6e2e49c8993,61,Ciencia y tecnología,Museo Jardín Botánico Faustino Miranda,1949-11-20,Secretaría de Medio Ambiente e Historia Natural,público,Calz. de los Hombres Ilustres s/n,Fracc. Parque Madero,29000,961  612 36 22 ext. 218 y 219,https://www.semahn.chiapas.gob.mx/portal/desarrollo_forestal/botanico,,Jardinbotanico@semahn.chiapas.gob.mx,,16.75839,-93.10779,7,101,1,Chiapas,Tuxtla Gutiérrez,Tuxtla Gutiérrez,http://sic.gob.mx/ficha.php?table=museo&table_id=61,2022-08-11T05:49:25-05:00
65a75f99df46a6e2e49c8994,1508,Especializado,Museo del Café,2009-08-01,Consejo Estatal para las Culturas y las Artes de Chiapas,comodato,2ª Oriente Norte 236,Centro,29000,961  611 14 78,,,museocafe@conecultachiapas.gob.mx,,16.75618,-93.11392,7,101,1,Chiapas,Tuxtla Gutiérrez,Tuxtla Gutiérrez,http://sic.gob.mx/ficha.php?table=museo&table_id=1508,2023-05-17T06:06:08-06:00
65a75f99df46a6e2e49c8995,2219,TND,Museo de las Artesanías de Chiapas,2018-09-25,Instituto Casa de las Artesanías de Chiapas,Público,Blvd.  Belisario Domínguez 2035,Col. Xamaipak,29067,961 602 65 65 exts. 126 y 131,,,musart.chiapas@gmail.com; camachodyl@gmail.com,,16.75436,-93.13785,7,101,1,Chiapas,Tuxtla Gutiérrez,Tuxtla Gutiérrez,http://sic.gob.mx/ficha.php?table=museo&table_id=2219,2023-10-27T08:57:42-06:00
65a75f99df46a6e2e49c8996,2027,Ciencia y tecnología,Museo de la Niñez,2018-04-09,Gobierno del Estado de Chiapas,público,Blvd. Salomón Gonzalez Blanco esq. con Paso limón,Ampliación Las Palmas,29045,961 688 21 11 ,,,informacion@museodelninotgz.org.mx,,16.75624,-93.08135,7,101,1,Chiapas,Tuxtla Gutiérrez,Tuxtla Gutiérrez,http://sic.gob.mx/ficha.php?table=museo&table_id=2027,2023-10-17T03:17:00-06:00
65a75f99df46a6e2e49c8997,45,Ciencia y tecnología,Museo del Cocodrilo,2004-08-03,Gobierno del Estado de Chiapas/Instituto de Historia Natural y Ecología,público,Calz. Cerro Hueco s/n,Col. El Zapotal,29000,"961 614 47 01, 614 47 00 ext. 51047",,,museococodrilo@yahoo.com.mx,,16.72544,-93.09654,7,101,1,Chiapas,Tuxtla Gutiérrez,Tuxtla Gutiérrez,http://sic.gob.mx/ficha.php?table=museo&table_id=45,2023-12-12T06:22:13-06:00
65a75f99df46a6e2e49c8998,4,Ciencia y tecnología,Museo Zoológico César Domínguez Flores,1942-10-01,Secretaría de Medio Ambiente e Historia Natural/Gobierno de Chiapas,público,Calz. Cerro Hueco s/n,Col.  El Zapotal,29094,(961) 614 47 01,,,museo_zool@hotmail.com,,16.72547,-93.09453,7,101,1,Chiapas,Tuxtla Gutiérrez,Tuxtla Gutiérrez,http://sic.gob.mx/ficha.php?table=museo&table_id=4,2019-08-23T04:42:29-05:00
65a75f99df46a6e2e49c8999,138,Especializado,Museo del Café,1997-12-16,"Sociedad Cooperativa Centro Turístico Santo Domingo, S.C.L.",privado,Palmeras s/n,Barrio Lázaro Cárdenas,30885,(962) 627 00 55,http://www.turismochiapas.gob.mx/sectur/centro-eco-turstico-santo-domingo,,rosemberg@centroecoturisticosantodomingo.com,,15.03018,-92.1063,7,105,24,Chiapas,Unión Juárez,Santo Domingo,http://sic.gob.mx/ficha.php?table=museo&table_id=138,2021-02-19T05:20:44-06:00
65a75f99df46a6e2e49c899a,411,Antropología,Museo Municipal Comunitario Yashlum ,1997-06-14,Ayuntamiento de Yajalón,público,Av. Central s/n,Centro,29930,(919) 674 01 19,,,hayuntamientoyajalon@gmail.com,,,,7,109,1,Chiapas,Yajalón,Yajalón,http://sic.gob.mx/ficha.php?table=museo&table_id=411,2017-03-10T13:33:24-06:00
65a75f99df46a6e2e49c899b,1333,Historia,Museo Benito Juárez,1996-01-01,Ayuntamiento de Ahumada,público,Domicilio conocido s/n,Centro,32800,(656) 664 21 60,http://www.ahumada.gob.mx/Contenido/plantilla5.asp?cve_canal=14803&Portal=ahumada,,mpioahumada0710@hotmail.com,,,,8,1,20,Chihuahua,Ahumada,Carrizal,http://sic.gob.mx/ficha.php?table=museo&table_id=1333,2017-03-10T12:24:31-06:00
65a75f99df46a6e2e49c899c,1924,Historia,Museo Histórico de Valle de Allende,2017-05-01,Ayuntamiento de Allende,TPND,Constitución s/n,Centro,33920,628 546 00 11,,,,,,,8,3,1,Chihuahua,Allende,Valle de Ignacio Allende,http://sic.gob.mx/ficha.php?table=museo&table_id=1924,2023-05-09T07:54:35-06:00
65a75f99df46a6e2e49c899d,2319,TND,Museo Regional y Centro Cultural Meteorito de Allende,2012-06-13,Asociación Civil Meteorito de Allende,Privado,2 de Abril esq. Benito Juárez,Col. Nicolás Fernández,33920,636 144 28 45,,,museometeoritodeallende@gmail.com,,26.93402,-105.39394,8,3,1,Chihuahua,Allende,Valle de Ignacio Allende,http://sic.gob.mx/ficha.php?table=museo&table_id=2319,2023-11-08T06:29:44-06:00
65a75f99df46a6e2e49c899e,944,Historia,Museo Comunitario de Santa Eulalia,1985-01-28,"Museos Comunitarios de Chihuahua, A.C.",comodato,Zaragoza s/n,Centro,31650,(614) 451 51 77,,,aquileserdan@live.com.mx,,28.59389,-105.88778,8,4,1,Chihuahua,Aquiles Serdán,Santa Eulalia,http://sic.gob.mx/ficha.php?table=museo&table_id=944,2017-03-10T12:32:03-06:00
65a75f99df46a6e2e49c899f,863,Arte,Museo Tarahumara de Arte Popular,1998-06-13,Gobierno del Estado de Chihuahua,público,Av. Ferrocarril 178,La Estación Creel,33200,635 456 00 80,,,casaartesanias@prodigy.net.mx,,27.7531,-107.63491,8,9,1,Chihuahua,Bocoyna,Bocoyna,http://sic.gob.mx/ficha.php?table=museo&table_id=863,2023-02-17T08:35:54-06:00
65a75f99df46a6e2e49c89a0,2404,TND,Museo Casa Camargo,2009-01-01,,,Comonfort 104,Centro,33700,648 462 12 38,,,,,27.69498,-105.16973,8,11,1,Chihuahua,Camargo,Santa Rosalía de Camargo,http://sic.gob.mx/ficha.php?table=museo&table_id=2404,2023-10-16T06:34:39-06:00
65a75f99df46a6e2e49c89a1,947,Arqueología,Museo de las Culturas del Norte,1996-02-26,Secretaría de Cultura/INAH,público,Av. Zona arqueológica Paquimé s/n,Centro,31850,636 692 41 40,,https://inahchihuahua.wordpress.com/museo-de-las-culturas-del-norte/,mauriciosalgado_@inah.gob.mx,,30.36784,-107.94986,8,13,1,Chihuahua,Casas Grandes,Casas Grandes,http://sic.gob.mx/ficha.php?table=museo&table_id=947,2023-12-14T04:10:11-06:00
65a75f99df46a6e2e49c89a2,506,Historia,Museo del General Toribio Ortega,1999-11-14,"Museos Comunitarios de Chihuahua, A.C.",privado,Domicilio conocido s/n,Centro,32850,(626) 454 20 01,,,,,29.46139,-105.09722,8,15,1,Chihuahua,Coyame del Sotol,Santiago de Coyame,http://sic.gob.mx/ficha.php?table=museo&table_id=506,2017-03-10T13:15:50-06:00
65a75f99df46a6e2e49c89a3,1298,Historia,Museo Casa de Juárez,1996-01-01,Asociación Rescate Histórico,público,Nigromante y Lerdo de Tejada,Centro ,,(648) 475 15 79,,,mpiolacruz12@hotmail.com,,,,8,16,1,Chihuahua,La Cruz,La Cruz,http://sic.gob.mx/ficha.php?table=museo&table_id=1298,2017-03-10T12:26:02-06:00
65a75f99df46a6e2e49c89a4,2196,TND,Museo de la Ciudad de Cuauhtémoc,2021-07-19,Instituto de Cultura del Municipio de Cuauhtémoc,,Calle Santos Degollado s/n,Col. Progreso. Parque Mirador Cuauhtémoc,31500,625 110 3312,,,icm.cuauhtemoc@gmail.com,,28.40631,-106.86604,8,17,1,Chihuahua,Cuauhtémoc,Cuauhtémoc,http://sic.gob.mx/ficha.php?table=museo&table_id=2196,2022-12-27T13:01:33-06:00
65a75f99df46a6e2e49c89a5,1654,Antropología,Museo Favela,2008-12-06,"Museo Ejido Favela, A.C.",privado,Carr. Libre Cuauhtémoc-Chihuahua,Centro,31600,"Cels. (625) 156 57 95, 114 52 81",,,museofaveladelmamut@gmail.com,,28.51484,-106.69693,8,17,88,Chihuahua,Cuauhtémoc,Favela,http://sic.gob.mx/ficha.php?table=museo&table_id=1654,2021-02-22T05:07:37-06:00
65a75f99df46a6e2e49c89a6,1297,Historia,Museo y Centro Cultural Menonita,2001-12-15,"Museo y Centro Cultural Menonita, A.C.",privado,Carr. Cuauhtémoc-Álvaro Obregón km 10+200 núm. 1024,Col. Manitoba,31500,625 156 56 13 ,https://www.museomenonita.org,https://www.facebook.com/MuseoMenonita,info@museomenonita.com; reservaciones@museomenonita.com,,28.49188,-106.9113,8,17,743,Chihuahua,Cuauhtémoc,Kilómetro 10 Corredor Comercial Manitoba,http://sic.gob.mx/ficha.php?table=museo&table_id=1297,2023-06-13T07:54:07-06:00
65a75f99df46a6e2e49c89a7,1299,Historia,Museo Histórico de Cusihuiriachi,2000-08-10,Ayuntamiento de Cusihuiriachi,público,Domicilio conocido,Centro,33240,625 590 42 50,,,eecusihuiriachi1316@gmail.com,,,,8,18,1,Chihuahua,Cusihuiriachi,Cusihuiriachi,http://sic.gob.mx/ficha.php?table=museo&table_id=1299,2021-08-05T15:58:58-05:00
65a75f99df46a6e2e49c89a8,922,Historia,Museo del Centro Cultural Universitario Quinta Gameros,1961-11-22,Universidad Autónoma de Chihuahua,público,Av. Paseo Simón Bolívar 401,Centro,31000,(614) 416 66 84,,,ccuquintagameros@gmail.com,,28.63225,-106.0738,8,19,1,Chihuahua,Chihuahua,Chihuahua,http://sic.gob.mx/ficha.php?table=museo&table_id=922,2019-08-23T05:23:05-05:00
65a75f99df46a6e2e49c89a9,1399,TND,Museo Interactivo de Finanzas La Bóveda,2020-01-06,Ayuntamiento de Chihuahua,TPND,"Independencia y Victoria, Edif. Regidores  Eloy S. Vallina Lagüera",Centro,31000, 614 200 48 00 ext. 2410,,,,,28.63623,-106.0762,8,19,1,Chihuahua,Chihuahua,Chihuahua,http://sic.gob.mx/ficha.php?table=museo&table_id=1399,2023-10-31T06:17:13-06:00
65a75f99df46a6e2e49c89aa,928,Historia,Museo Galería de Armas,2004-07-30,Secretaría de Cultura de Chihuahua,público,Venustiano Carranza esq. Libertad s/n,Centro,31000,614 410 42 58,,,mlrcasadejuarez@hotmail.com; mlrcasadejuarez@gmail.com; museocasadejuarez@hotmail.com,,28.63898,-106.07328,8,19,1,Chihuahua,Chihuahua,Chihuahua,http://sic.gob.mx/ficha.php?table=museo&table_id=928,2022-09-21T08:38:00-05:00
65a75f99df46a6e2e49c89ab,927,Historia,Museo de Hidalgo,2004-07-30,Instituto Chihuahuense de la Cultura/Palacio de Gobierno de Chihuahua,público,Venustiano Carranza y Libertad,Centro,31000,(614) 410 42 58,,,mlrcasadejuarez@hotmail.com,,28.63948,-106.07386,8,19,1,Chihuahua,Chihuahua,Chihuahua,http://sic.gob.mx/ficha.php?table=museo&table_id=927,2018-10-12T05:25:52-05:00
65a75f99df46a6e2e49c89ac,921,Historia,Museo de la Lealtad Republicana Casa de Juárez,1972-10-12,Instituto Chihuahuense de la Cultura,público,Av. Juárez 321,Centro,31000,(614) 410 42 58,,,mlrcasadejuarez@hotmail.com; mlrcasadejuarez@gmail.com; museocasadejuarez@hotmail.com,,28.63868,-106.07566,8,19,1,Chihuahua,Chihuahua,Chihuahua,http://sic.gob.mx/ficha.php?table=museo&table_id=921,2021-02-24T06:02:06-06:00
65a75f99df46a6e2e49c89ad,2047,TND, Museo de Sitio del General Toribio Ortega,2016-12-01,Quinta Touche/Gobierno Municipal de Chihuahua,,Av. Independencia y Paseo Bolívar 101,Centro,31000,(614)  200 48 00,,,,,28.63403,-106.07238,8,19,1,Chihuahua,Chihuahua,Chihuahua,http://sic.gob.mx/ficha.php?table=museo&table_id=2047,2021-08-20T04:52:35-05:00
65a75f99df46a6e2e49c89ae,1288,Ciencia y tecnología,Museo del Mamut,2004-10-04,Asociación Civil del Museo de Paleontología,público,Av. Juárez 2506,Centro,31000,614 437 30 30,,,carmen.fierro@itesm.mx,,28.6431,-106.07046,8,19,1,Chihuahua,Chihuahua,Chihuahua,http://sic.gob.mx/ficha.php?table=museo&table_id=1288,2023-06-13T07:36:15-06:00
65a75f99df46a6e2e49c89af,900,Arte,Casa Redonda Museo Chihuahuense de Arte Contemporáneo,2000-09-20,Instituto Chihuahuense de la Cultura,comodato,Av. Colón y Escudero s/n,Col. Santo Niño,31320,(614) 414 90 61,,,museocasaredonda@gmail.com,,28.65225,-106.0728,8,19,1,Chihuahua,Chihuahua,Chihuahua,http://sic.gob.mx/ficha.php?table=museo&table_id=900,2021-02-24T04:33:42-06:00
65a75f99df46a6e2e49c89b0,1290,Ciencia y tecnología,Museo Semilla,2004-08-12,DIF Estatal,público,Progreso 1201,Centro,31000,(614) 412 39 12,,,museosemilla@hotmail.com,,28.637,-106.08417,8,19,1,Chihuahua,Chihuahua,Chihuahua,http://sic.gob.mx/ficha.php?table=museo&table_id=1290,2021-02-23T06:03:51-06:00
65a75f99df46a6e2e49c89b1,918,Arte,Museo Sebastián,1995-12-03,Ayuntamiento de Chihuahua/Instituto de Cultura del Municipio de Chihuahua,público,Av. Juárez y 6ta. núm.  601,Centro,31000,(614) 200 48 00 ext. 2424,http://www.icm.gob.mx/page1.php?id=galerias-y-museos,,cdcchihuahua@gmail.com,,28.63579,-106.07904,8,19,1,Chihuahua,Chihuahua,Chihuahua,http://sic.gob.mx/ficha.php?table=museo&table_id=918,2021-02-22T06:03:47-06:00
65a75f99df46a6e2e49c89b2,946,Historia,Museo Comunitario Tarike,1982-10-12,"Fundación Cultural Tarike, A.C.",comodato,Calle Cuarta 2610,Centro,31000,614 410 2870,,,museotarike@gmail.com,,28.62972,-106.06952,8,19,1,Chihuahua,Chihuahua,Chihuahua,http://sic.gob.mx/ficha.php?table=museo&table_id=946,2023-09-27T08:19:48-06:00
65a75f99df46a6e2e49c89b3,926,Historia,Museo Histórico de la Revolución Mexicana,1982-11-17,"Secretaría de la Defensa Nacional (SEDENA), Dirección General de Archivo e Historia",público,Décima 3010,Col. Santa Rosa,31050,(614) 416 29 58,http://www.gob.mx/sedena/acciones-y-programas/museo-historico-de-la-revolucion,,mus_histrevol@mail.sedena.gob.mx,,28.62643,-106.06862,8,19,1,Chihuahua,Chihuahua,Chihuahua,http://sic.gob.mx/ficha.php?table=museo&table_id=926,2021-07-05T05:10:40-05:00
65a75f99df46a6e2e49c89b4,1570,Arte,Poliforum Cultural Universitario,2008-04-01,Universidad Autónoma de Chihuahua,público,Escorza 900,Centro,31000,(614) 439 15 00 ext. 2026,https://uach.mx/visitantes/poliforum-cultural-universitario/,,,,28.63818,-106.07226,8,19,1,Chihuahua,Chihuahua,Chihuahua,http://sic.gob.mx/ficha.php?table=museo&table_id=1570,2022-03-14T03:53:34-06:00
65a75f99df46a6e2e49c89b5,1302,Historia,"Casa Chihuahua, Centro de Patrimonio Cultural/Museo de Sitio Calabozo de Hidalgo",1972-10-12,"Secretaría de Educación, Cultura y Deporte del Estado de Chihuahua",Fideicomiso,Libertad 901,Centro,31000,"614 429 33 00 exts. 11724, 11700, 1720, 11701, 11702",http://casachihuahua.org.mx/,,casachihuahua@gmail.com,casachihuahua,28.63956,-106.07402,8,19,1,Chihuahua,Chihuahua,Chihuahua,http://sic.gob.mx/ficha.php?table=museo&table_id=1302,2023-12-12T06:49:37-06:00
65a75f99df46a6e2e49c89b6,1926,Historia,Museo Ex-Hacienda El Sauz,2017-04-01,Ex Hacienda El Sauz/Dirección de Desarrollo Económico y Turístico del Municipio de Chihuahua,,Av. Juárez esq. Argentina,Col. El Sauz,31630,614 174 7615,,,museoelsauz@gmail.com; elsauzchihuahua@yahoo.com.mx,elsauzmuseoexhacienda,29.05033,-106.25349,8,19,300,Chihuahua,Chihuahua,El Sauz,http://sic.gob.mx/ficha.php?table=museo&table_id=1926,2023-04-28T11:23:17-06:00
65a75f99df46a6e2e49c89b7,1896,Historia,Museo de Sitio Huellas de Nuestros Pasos,2015-04-01,Ayuntamiento de Delicias/Coordinación de Cultura,público,Av. del Parque Nte. 2 esq. Círculo del Reloj Público,Centro,33000,(639) 472 38 80,,,msitio.hdnp@gmail.com,,28.19854,-105.47764,8,21,1,Chihuahua,Delicias,Delicias,http://sic.gob.mx/ficha.php?table=museo&table_id=1896,2019-08-23T05:21:03-05:00
65a75f99df46a6e2e49c89b8,761,Ciencia y tecnología,Museo de Paleontología de Delicias,1982-05-08,Ayuntamiento de Delicias,comodato,Av. Río Chuviscar Norte 2,Centro,33000,(639) 474 40 68,http://www.museodepaleontologia.com,https://www.facebook.com/museopaleontologia,sistemas@museodepaleontologia.com,,28.19562,-105.46927,8,21,1,Chihuahua,Delicias,Delicias,http://sic.gob.mx/ficha.php?table=museo&table_id=761,2018-10-12T06:25:27-05:00
65a75f99df46a6e2e49c89b9,1455,Ciencia y tecnología,Museo del Desierto Chihuahuense (MUDECH),2010-03-20,Gobierno del Estado de Chihuahua/Instituto Chihuahuense de la Cultura,público,Septima Sur esq. Av. Gente s/n,Fracc. Valle Verde,33093,639 125 04 52,,,museodeldesiertochihuahuense@hotmail.com,,28.16693,-105.48974,8,21,1,Chihuahua,Delicias,Delicias,http://sic.gob.mx/ficha.php?table=museo&table_id=1455,2023-06-13T08:05:48-06:00
65a75f99df46a6e2e49c89ba,1292,Historia,Museo Regional de Cultura Galeana,NA,Ayuntamiento de Galeana,público,Av. Progreso 301,Centro,31870,(636) 661 11 23 ext. 112,,,educacionyculturag@hotmail.com,,30.1122,-107.61606,8,23,1,Chihuahua,Galeana,Hermenegildo Galeana,http://sic.gob.mx/ficha.php?table=museo&table_id=1292,2017-03-10T13:37:47-06:00
65a75f99df46a6e2e49c89bb,550,Antropología,Museo Comunitario Norawa,1998-06-29,Ayuntamiento de Guachochi/Departamento de Fomento Económico y Turismo,público,Paseo de las Garzas s/n,Col. La Hacienda,33180,649 543 01 51 ext.  117,,,turismo@guachochi.mx,,26.8344,-107.07849,8,27,1,Chihuahua,Guachochi,Guachochi,http://sic.gob.mx/ficha.php?table=museo&table_id=550,2021-04-26T04:36:14-05:00
65a75f99df46a6e2e49c89bc,2327,TND,Museo de San Ignacio de Loyola de Arte Sacro ,NA,,privado,Domicilio conocido,Centro de Cusárare,33195,635 456 01 50,,,,,27.60171,-107.53908,8,27,31,Chihuahua,Guachochi,Cusárare,http://sic.gob.mx/ficha.php?table=museo&table_id=2327,2023-02-17T07:43:40-06:00
65a75f99df46a6e2e49c89bd,874,Antropología,Museo Towi (en proceso de remodelación),1994-05-01,"Museos Comunitarios de Chihuahua, A.C.",público,Domicilio conocido,,33180,627 120 84 93,,,marcosbus05@hotmail.com,,26.89565,-107.22914,8,27,70,Chihuahua,Guachochi,Rocheachi,http://sic.gob.mx/ficha.php?table=museo&table_id=874,2021-08-12T11:35:34-05:00
65a75f99df46a6e2e49c89be,943,Historia,Museo Comunitario Abraham González,1984-11-20,"Museos Comunitarios de Chihuahua, A.C.",privado,Victoria 300,Centro,31680,625 101 3601,,,,,28.54694,-107.48496,8,31,1,Chihuahua,Guerrero,Vicente Guerrero,http://sic.gob.mx/ficha.php?table=museo&table_id=943,2023-02-09T09:17:07-06:00
65a75f99df46a6e2e49c89bf,398,Historia,Museo Comunitario Tomochic,1992-10-19,Ayuntamiento de Guerrero,privado,Domicilio conocido,Centro,31691,635 456 01 70,,, ,,29.0918,-107.04679,8,31,1,Chihuahua,Guerrero,Vicente Guerrero,http://sic.gob.mx/ficha.php?table=museo&table_id=398,2023-02-10T05:13:50-06:00
65a75f99df46a6e2e49c89c0,1400,Historia,Museo Comunitario Ferrocarrilero,2007-01-01,Presidencia Seccional La Junta,público,20 de Noviembre s/n esq. Segunda,Centro,31690,635 583 01 32,,,lajunta.desasocial@gmail.com,,28.47778,-107.33167,8,31,3,Chihuahua,Guerrero,La Junta,http://sic.gob.mx/ficha.php?table=museo&table_id=1400,2022-08-08T11:42:19-05:00
65a75f99df46a6e2e49c89c1,1922,Historia,Museo de Sitio Centauro del Norte,2016-03-19,Gobierno del Estado de Chihuahua,público,Pedro Teódulo Gómez 2,Centro,33800,(627) 522 02 90,,,centaurodelnorte_1923@hotmail.com,,26.93327,-105.669,8,32,1,Chihuahua,Hidalgo del Parral,Hidalgo del Parral,http://sic.gob.mx/ficha.php?table=museo&table_id=1922,2021-02-23T07:50:06-06:00
65a75f99df46a6e2e49c89c2,1963,Historia,Casa Museo Palacio Alvarado,2003-05-30,Secretaría de Cultura del Estado de Chihuahua/Centro Cultural Palacio Alvarado,público,Riva Palacio y Lic. Francisco Primo de Verdad 2,Centro,33800,627  522 02 90,,,palacioalvarado@hotmail.com,,26.93263,-105.67077,8,32,1,Chihuahua,Hidalgo del Parral,Hidalgo del Parral,http://sic.gob.mx/ficha.php?table=museo&table_id=1963,2023-12-12T06:50:29-06:00
65a75f99df46a6e2e49c89c3,672,Historia,Museo Francisco Villa,2000-07-20,,privado,Gabino Barreda s/n,Centro,33800,(627) 525 32 92,,,museofranciscovillaparral@hotmail.com; americavelazquez@gmail.com,,26.93289,-105.67273,8,32,1,Chihuahua,Hidalgo del Parral,Hidalgo del Parral,http://sic.gob.mx/ficha.php?table=museo&table_id=672,2019-08-23T05:26:51-05:00
65a75f99df46a6e2e49c89c4,1377,Ciencia y tecnología,Museo Mina la Prieta,NA,Ayuntamiento de Hidalgo del Parral,privado,Estaño s/n,Col. Fátima,33800,(627) 525 44 00,,http://www.zonaturistica.com/atractivo-turistico/1084/museo-mina-la-prieta-hidalgo-del-parral.html,americavelazquez@gmail.com,,26.93303,-105.66322,8,32,1,Chihuahua,Hidalgo del Parral,Hidalgo del Parral,http://sic.gob.mx/ficha.php?table=museo&table_id=1377,2020-02-04T11:11:53-06:00
